<?xml version="1.0" encoding="utf-8"?><gpx xmlns="http://www.topografix.com/GPX/1/1"><wpt lat="50.2074081" lon="16.847424"><name>Králický Sněžník / Śnieżnik</name><ele>1426</ele><wikidata>Q1397501</wikidata><wikipedia>en:Králický Sněžník</wikipedia></wpt><wpt lat="49.5280005" lon="19.3167511"><name>Pilsko</name><ele>1557</ele><wikidata>Q1431424</wikidata><wikipedia>sk:Pilsko</wikipedia></wpt><wpt lat="49.6845736" lon="19.0302741"><name>Skrzyczne</name><ele>1257</ele><wikidata>Q771297</wikidata><wikipedia>pl:Skrzyczne</wikipedia></wpt><wpt lat="49.5428239" lon="20.1113839"><name>Turbacz</name><ele>1310</ele><wikidata>Q7853729</wikidata><wikipedia>pl:Turbacz</wikipedia></wpt><wpt lat="50.8679587" lon="20.58785"><name>Karczówka</name><ele>319</ele><wikidata>Q11735622</wikidata><wikipedia>pl:Karczówka (Góry Świętokrzyskie)</wikipedia></wpt><wpt lat="49.5528375" lon="21.3026117"><name>Dziamera</name><ele>757</ele><wikidata>Q9248179</wikidata><wikipedia>pl:Dziamera</wikipedia></wpt><wpt lat="49.0721099" lon="22.7688101"><name>Halicz</name><ele>1333</ele><wikidata>Q5642081</wikidata><wikipedia>pl:Halicz (góra)</wikipedia></wpt><wpt lat="49.0618412" lon="22.7704528"><name>Rozsypaniec</name><ele>1280</ele><wikidata>Q9323329</wikidata><wikipedia>pl:Rozsypaniec (pasmo połonin)</wikipedia></wpt><wpt lat="49.5306196" lon="21.717842"><name>Cergowa</name><ele>716</ele></wpt><wpt lat="49.4765803" lon="21.7495671"><name>Piotruś</name><ele>727.9</ele><wikidata>Q7197134</wikidata><wikipedia>pl:Piotruś</wikipedia></wpt><wpt lat="49.573712" lon="21.5315903"><name>Grzywacka Góra</name><ele>567</ele><wikidata>Q11702848</wikidata><wikipedia>pl:Grzywacka Góra</wikipedia></wpt><wpt lat="49.7246955" lon="18.8565564"><name>Równica</name><ele>884</ele></wpt><wpt lat="50.0549163" lon="19.8933483"><name>Kopiec Kościuszki</name><ele>326.5</ele><wikidata>Q641398</wikidata><wikipedia>pl:Kopiec Kościuszki w Krakowie</wikipedia></wpt><wpt lat="50.4727508" lon="18.5119369"><name>Sarnowska Góra</name><ele>292</ele></wpt><wpt lat="50.0600489" lon="19.8471648"><name>Kopiec Piłsudskiego</name><ele>383.6</ele><wikidata>Q1985405</wikidata><wikipedia>pl:Kopiec Piłsudskiego w Krakowie</wikipedia></wpt><wpt lat="49.76072" lon="19.807831"><name>Parszywka</name><ele>842</ele></wpt><wpt lat="53.5504937" lon="19.9399006"><name>Dylewska Góra</name><ele>312</ele><wikidata>Q1268797</wikidata><wikipedia>pl:Dylewska Góra</wikipedia></wpt><wpt lat="49.4514253" lon="21.743418"><name>Ostra</name><ele>687.3</ele></wpt><wpt lat="49.5953231" lon="18.839021"><name>Kiczory</name><ele>990</ele><wikidata>Q11738939</wikidata><wikipedia>pl:Kiczory (szczyt)</wikipedia></wpt><wpt lat="54.4425332" lon="18.4647635"><name>Góra Studencka</name><ele>178</ele></wpt><wpt lat="50.0380822" lon="19.958435"><name>Kopiec Krakusa</name><ele>269</ele><wikidata>Q722446</wikidata><wikipedia>pl:Kopiec Krakusa</wikipedia></wpt><wpt lat="49.8164402" lon="20.1459263"><name>Grodzisko</name><ele>618</ele><wikidata>Q11701437</wikidata><wikipedia>pl:Grodzisko (Beskid Wyspowy)</wikipedia></wpt><wpt lat="50.7527058" lon="15.7915487"><name>Skalny Stół / Tabule</name><ele>1281</ele><wikidata>Q9337581</wikidata><wikipedia>pl:Skalny Stół</wikipedia></wpt><wpt lat="50.7552778" lon="15.8127778"><name>Czoło / Čelo</name><ele>1266</ele></wpt><wpt lat="50.163543" lon="19.6837407"><name>Zamczysko</name><ele>434</ele><wikidata>Q9283543</wikidata><wikipedia>pl:Góra Zamczysko</wikipedia></wpt><wpt lat="50.7410201" lon="15.6914842"><name>Stříbrné návrší</name><ele>1433</ele><wikidata>Q12342192</wikidata><wikipedia>cs:Stříbrné návrší</wikipedia></wpt><wpt lat="49.6213864" lon="19.4744905"><name>Kolisty Groń</name><ele>1114</ele><wikidata>Q11766274</wikidata><wikipedia>pl:Magurka (Kolisty Groń)</wikipedia></wpt><wpt lat="53.3380911" lon="14.6417859"><name>Bukowiec</name><ele>148.4</ele></wpt><wpt lat="49.1879846" lon="20.0526795"><name>Cubryna / Čubrina</name><ele>2376</ele><wikidata>Q9196971</wikidata><wikipedia>pl:Cubryna</wikipedia></wpt><wpt lat="50.6268215" lon="16.1785724"><name>Buková hora</name><ele>638</ele></wpt><wpt lat="49.7483479" lon="18.9453302"><name>Błatnia</name><ele>917</ele><wikidata>Q9183168</wikidata><wikipedia>pl:Błatnia</wikipedia></wpt><wpt lat="49.7017838" lon="19.5718132"><name>Magurka</name><ele>870</ele><wikidata>Q11766278</wikidata><wikipedia>pl:Magurka (Pasmo Jałowieckie)</wikipedia></wpt><wpt lat="49.7994243" lon="19.9494703"><name>Chełm</name><ele>614</ele></wpt><wpt lat="49.7977078" lon="19.9633581"><name>Wierch Stróża</name><ele>648</ele></wpt><wpt lat="50.8892111" lon="15.272961"><name>Smrk</name><ele>1124</ele></wpt><wpt lat="50.8144165" lon="15.3577083"><name>Bukovec</name><ele>1005</ele></wpt><wpt lat="50.8429563" lon="15.3343127"><name>Pytlácké kameny</name><ele>975</ele></wpt><wpt lat="50.7274736" lon="15.7078407"><name>Studniční hora</name><ele>1554</ele><wikidata>Q2358834</wikidata><wikipedia>cs:Studniční hora</wikipedia></wpt><wpt lat="50.7279167" lon="15.6818178"><name>Luční hora</name><ele>1555</ele><wikipedia>cs:Luční hora</wikipedia></wpt><wpt lat="50.7805043" lon="15.5457033"><name>Łabski Szczyt / Violík</name><ele>1469.8</ele><wikidata>Q1546756</wikidata><wikipedia>pl:Łabski Szczyt</wikipedia></wpt><wpt lat="50.8364476" lon="15.3483807"><name>Jelení stráň</name><ele>1018</ele></wpt><wpt lat="50.7890539" lon="15.4906062"><name>Kamiennik / Luboch</name><ele>1293.7</ele><wikidata>Q11028951</wikidata><wikipedia>pl:Kamiennik (Karkonosze)</wikipedia></wpt><wpt lat="54.2078401" lon="16.2256082"><name>Krzyżanka</name><ele>136.2</ele></wpt><wpt lat="50.8640875" lon="16.7074963"><name>Ślęża</name><ele>717.5</ele><wikidata>Q387148</wikidata><wikipedia>pl:Ślęża</wikipedia></wpt><wpt lat="50.2286808" lon="17.0336616"><name>Smrk</name><ele>1127</ele><wikidata>Q681415</wikidata><wikipedia>cs:Smrk (Rychlebské hory)</wikipedia></wpt><wpt lat="49.2252083" lon="20.014547"><name>Kościelec</name><ele>2155</ele><wikidata>Q3695958</wikidata><wikipedia>pl:Kościelec (Tatry)</wikipedia></wpt><wpt lat="51.3419" lon="21.87528"><name>Mysia Góra</name><ele>168</ele></wpt><wpt lat="50.0641284" lon="18.4425079"><name>Hałda Szarlota</name><ele>407</ele><wikidata>Q3504713</wikidata><wikipedia>pl:Hałda w Rydułtowach</wikipedia></wpt><wpt lat="50.7802778" lon="15.5783333"><name>Śmielec</name><ele>1424</ele><wikidata>Q3488142</wikidata><wikipedia>pl:Śmielec</wikipedia></wpt><wpt lat="50.7769758" lon="15.5912409"><name>Czeskie Kamienie / Mužské kameny</name><ele>1417</ele><wikidata>Q3498714</wikidata><wikipedia>pl:Czeskie Kamienie</wikipedia></wpt><wpt lat="50.7768498" lon="15.6018741"><name>Śląskie Kamienie / Dívčí kameny</name><ele>1412.7</ele><wikidata>Q972255</wikidata><wikipedia>pl:Śląskie Kamienie</wikipedia></wpt><wpt lat="50.759212" lon="15.6486835"><name>Mały Szyszak / Malý Šišák</name><ele>1439.4</ele><wikidata>Q3488936</wikidata><wikipedia>cs:Malý Šišák</wikipedia></wpt><wpt lat="50.6669968" lon="15.8598315"><name>Mravenečník</name><ele>1005</ele></wpt><wpt lat="50.7429183" lon="15.7689968"><name>Czarna Kopa / Svorová hora</name><ele>1407.2</ele></wpt><wpt lat="50.38789" lon="23.46122"><name>Kościowa Góra</name><ele>279</ele></wpt><wpt lat="50.8868908" lon="16.7290097"><name>Wieżyca</name><ele>414.2</ele></wpt><wpt lat="51.0817115" lon="16.9969884"><name>Mała Sobótka</name><ele>134.3</ele><wikidata>Q11772102</wikidata><wikipedia>pl:Mała Sobótka</wikipedia></wpt><wpt lat="49.1823427" lon="20.0481822"><name>Kôprovský štít</name><ele>2367</ele><wikidata>Q723092</wikidata><wikipedia>sk:Kôprovský štít</wikipedia></wpt><wpt lat="49.1730832" lon="20.0935843"><name>Vysoká</name><ele>2547</ele><wikidata>Q669108</wikidata><wikipedia>hu:Tátra-csúcs</wikipedia></wpt><wpt lat="49.175833" lon="20.067778"><name>Mengusovský Volovec</name><ele>2227</ele><wikidata>Q9378027</wikidata><wikipedia>sk:Mengusovský Volovec</wikipedia></wpt><wpt lat="49.183056" lon="20.0675"><name>Mięguszowiecki Szczyt Czarny / Východný Mengusovský štít</name><ele>2410</ele><wikidata>Q11783967</wikidata><wikipedia>pl:Mięguszowiecki Szczyt Czarny</wikipedia></wpt><wpt lat="49.1788495" lon="20.0751217"><name>Volia veža / Wołowa Turnia</name><ele>2373</ele><wikidata>Q1714138</wikidata><wikipedia>pl:Wołowa Turnia</wikipedia></wpt><wpt lat="49.1880226" lon="20.0890165"><name>Veľký Žabí štít / Żabi Szczyt Wyżni</name><ele>2263</ele><wikidata>Q3556467</wikidata><wikipedia>pl:Żabi Szczyt Wyżni</wikipedia></wpt><wpt lat="49.213889" lon="20.006944"><name>Valentková / Walentkowy Wierch</name><ele>2156</ele><wikidata>Q3495667</wikidata><wikipedia>pl:Walentkowy Wierch</wikipedia></wpt><wpt lat="49.1845389" lon="20.062749"><name>Mięguszowiecki Szczyt Pośredni / Prostredný Mengusovský štít</name><ele>2393</ele><wikidata>Q1664928</wikidata><wikipedia>pl:Mięguszowiecki Szczyt Pośredni</wikipedia></wpt><wpt lat="49.1834105" lon="20.0880254"><name>Malé Rysy / Niżnie Rysy</name><ele>2430</ele><wikidata>Q3284720</wikidata><wikipedia>pl:Niżnie Rysy</wikipedia></wpt><wpt lat="49.2230744" lon="19.9981449"><name>Krajná Kopa / Skrajna Turnia</name><ele>2097</ele><wikidata>Q957545</wikidata><wikipedia>pl:Skrajna Turnia</wikipedia></wpt><wpt lat="49.2067762" lon="20.0134135"><name>Gładki Wierch / Hladký štít</name><ele>2065</ele><wikidata>Q3495327</wikidata><wikipedia>pl:Gładki Wierch</wikipedia></wpt><wpt lat="49.1895392" lon="20.0500885"><name>Druhý Mních / Zadni Mnich</name><ele>2172</ele><wikidata>Q9385703</wikidata><wikipedia>pl:Zadni Mnich</wikipedia></wpt><wpt lat="50.9460526" lon="15.7325671"><name>Srebrna</name><ele>486</ele></wpt><wpt lat="54.469364" lon="18.4368647"><name>Donas</name><ele>205.7</ele><wikidata>Q1559133</wikidata><wikipedia>pl:Donas</wikipedia></wpt><wpt lat="50.1897109" lon="19.033136"><name>Hałda Murcki</name><ele>330</ele></wpt><wpt lat="52.3250653" lon="20.7480534"><name>"Tygrysia Górka"</name><ele>98.8</ele></wpt><wpt lat="49.4656108" lon="20.560115"><name>Przehyba</name><ele>1175</ele><wikidata>Q11828555</wikidata><wikipedia>pl:Przehyba</wikipedia></wpt><wpt lat="49.6343738" lon="18.8130036"><name>Velký Sošov / Soszów Wielki</name><ele>886</ele><wikidata>Q9339748</wikidata><wikipedia>pl:Soszów Wielki</wikipedia></wpt><wpt lat="50.2129244" lon="16.595029"><name>Jedlnik</name><ele>746.5</ele><wikidata>Q11723763</wikidata><wikipedia>pl:Jedlnik</wikipedia></wpt><wpt lat="50.1890474" lon="16.5794088"><name>Czerniec</name><ele>840.8</ele><wikidata>Q9198683</wikidata><wikipedia>pl:Czerniec (góra)</wikipedia></wpt><wpt lat="50.1907489" lon="19.0447426"><name>Wzgórze Wandy</name><ele>357</ele><wikidata>Q16617323</wikidata><wikipedia>pl:Wzgórze Wandy (Katowice)</wikipedia></wpt><wpt lat="50.7023425" lon="17.1101154"><name>Gromnik</name><ele>390.5</ele><wikidata>Q9280910</wikidata><wikipedia>pl:Gromnik (wzgórze)</wikipedia></wpt><wpt lat="51.0724336" lon="17.0501682"><name>Wzgórze Gajowe</name><ele>156</ele><wikidata>Q9381062</wikidata><wikipedia>pl:Wzgórze Gajowe</wikipedia></wpt><wpt lat="51.8166232" lon="19.4971202"><name>Górka Rogowska</name><ele>244</ele></wpt><wpt lat="50.8982993" lon="20.8022047"><name>Radostowa</name><ele>451</ele></wpt><wpt lat="51.0604992" lon="19.7443913"><name>Góra Chełmo</name><ele>320.3</ele></wpt><wpt lat="50.822824" lon="21.2076154"><name>Wesołówka</name><ele>469</ele><wikidata>Q9372136</wikidata><wikipedia>pl:Wesołówka (Góry Świętokrzyskie)</wikipedia></wpt><wpt lat="51.090228" lon="17.0304204"><name>Wzgórze Andersa</name><ele>142</ele><wikidata>Q9381051</wikidata><wikipedia>pl:Wzgórze Andersa</wikipedia></wpt><wpt lat="50.1808333" lon="16.6108333"><name>Sieniec</name><ele>675.2</ele></wpt><wpt lat="50.3269444" lon="16.5380556"><name>Poświętna</name><ele>842.1</ele></wpt><wpt lat="50.3238889" lon="16.5508333"><name>Barczowa</name><ele>811.1</ele><wikidata>Q56223271</wikidata><wikipedia>pl:Barczowa</wikipedia></wpt><wpt lat="50.3188697" lon="16.5823398"><name>Koszela</name><ele>711.1</ele></wpt><wpt lat="50.2967964" lon="16.5942028"><name>Kawczak</name><ele>600.9</ele><wikidata>Q11737554</wikidata><wikipedia>pl:Kawczak</wikipedia></wpt><wpt lat="50.3061408" lon="16.5848298"><name>Krzywka</name><ele>597</ele></wpt><wpt lat="50.3126411" lon="16.5707499"><name>Trzcińska Góra</name><ele>737.7</ele></wpt><wpt lat="51.0095178" lon="19.9832362"><name>Góra Kozłowa</name><ele>336.77</ele></wpt><wpt lat="50.295456" lon="16.5340394"><name>Zamkowa Kopa</name><ele>784.1</ele></wpt><wpt lat="51.8419955" lon="19.5165037"><name>Jack</name><ele>249</ele></wpt><wpt lat="50.1839497" lon="19.0075027"><name>Hałda Kostuchna</name><ele>339</ele></wpt><wpt lat="51.8528225" lon="19.4855812"><name>Ruska Gora</name><ele>248.2</ele></wpt><wpt lat="50.7795476" lon="16.210976"><name>Chełmiec</name><ele>851</ele><wikidata>Q1071478</wikidata><wikipedia>pl:Chełmiec (szczyt)</wikipedia></wpt><wpt lat="50.8386959" lon="16.2765495"><name>Borowiec Mały</name><ele>411.7</ele></wpt><wpt lat="50.8465472" lon="16.2743499"><name>Zwierzyniec</name><ele>412.7</ele></wpt><wpt lat="50.840494" lon="16.2861963"><name>Skiba</name><ele>431.4</ele></wpt><wpt lat="50.8463759" lon="16.3000722"><name>Wilk</name><ele>408.5</ele></wpt><wpt lat="50.8385877" lon="16.3187637"><name>Straconka</name><ele>419.6</ele></wpt><wpt lat="50.8396361" lon="16.3391947"><name>Paluch</name><ele>395.1</ele></wpt><wpt lat="51.3041667" lon="17.0286111"><name>Farna Góra</name><ele>258</ele></wpt><wpt lat="49.2282112" lon="19.9880115"><name>Beskid / Beskyd</name><ele>2012</ele><wikidata>Q9169549</wikidata><wikipedia>pl:Beskid (Tatry)</wikipedia></wpt><wpt lat="49.7649353" lon="19.0163674"><name>Kołowrót</name><ele>788</ele></wpt><wpt lat="49.7663415" lon="19.0511158"><name>Równia</name><ele>610</ele></wpt><wpt lat="50.8657075" lon="16.2861475"><name>Sosnówka</name><ele>402.2</ele></wpt><wpt lat="49.4180461" lon="20.8955129"><name>Jaworzyna Krynicka</name><ele>1114</ele><wikidata>Q3163203</wikidata><wikipedia>pl:Jaworzyna Krynicka</wikipedia></wpt><wpt lat="49.4109173" lon="20.2227309"><name>Czarna Góra</name><ele>804.1</ele></wpt><wpt lat="49.4176449" lon="20.4403502"><name>Sokolica</name><ele>747</ele><wikidata>Q9339203</wikidata><wikipedia>pl:Sokolica (Pieniny)</wikipedia></wpt><wpt lat="49.4137626" lon="20.4142632"><name>Trzy Korony</name><ele>982</ele><wikidata>Q7849064</wikidata><wikipedia>pl:Trzy Korony (szczyt)</wikipedia></wpt><wpt lat="49.7374421" lon="19.0159646"><name>Magura</name><ele>1109</ele><wikidata>Q11766259</wikidata><wikipedia>pl:Magura (Beskid Śląski)</wikipedia></wpt><wpt lat="49.5668264" lon="18.9114002"><name>Złoty Groń</name><ele>710</ele><wikidata>Q9393469</wikidata><wikipedia>pl:Złoty Groń</wikipedia></wpt><wpt lat="54.2239897" lon="18.1231876"><name>Wieżyca</name><ele>328.68</ele><wikidata>Q360129</wikidata><wikipedia>pl:Wieżyca (Pojezierze Kaszubskie)</wikipedia></wpt><wpt lat="49.1972912" lon="20.0400937"><name>Hrubý štít / Szpiglasowy Wierch</name><ele>2172.1</ele><wikidata>Q3504334</wikidata><wikipedia>pl:Szpiglasowy Wierch</wikipedia></wpt><wpt lat="49.1999582" lon="20.0322557"><name>Niżni Kostur / Nižný kostúr</name><ele>2055</ele><wikidata>Q11792499</wikidata><wikipedia>pl:Niżni Kostur</wikipedia></wpt><wpt lat="50.6802778" lon="16.4855556"><name>Wielka Sowa</name><ele>1015</ele><wikidata>Q989527</wikidata><wikipedia>pl:Wielka Sowa</wikipedia></wpt><wpt lat="49.2189222" lon="20.020038"><name>Mały Kozi Wierch</name><ele>2228</ele><wikidata>Q11772556</wikidata><wikipedia>pl:Mały Kozi Wierch</wikipedia></wpt><wpt lat="49.2183172" lon="20.0287051"><name>Kozi Wierch</name><ele>2291</ele><wikidata>Q1765870</wikidata><wikipedia>pl:Kozi Wierch</wikipedia></wpt><wpt lat="50.4057137" lon="16.5176919"><name>Twaróg</name><ele>427.8</ele><wikidata>Q9381079</wikidata><wikipedia>pl:Wzgórze Marii</wikipedia></wpt><wpt lat="49.2648986" lon="19.9410007"><name>Sarnia Skała</name><ele>1377</ele><wikidata>Q9333913</wikidata><wikipedia>pl:Sarnia Skała</wikipedia></wpt><wpt lat="50.351162" lon="19.0997005"><name>Góra Św. Doroty</name><ele>382</ele><wikidata>Q11703076</wikidata><wikipedia>pl:Góra Świętej Doroty</wikipedia></wpt><wpt lat="49.6041276" lon="19.4957013"><name>Barani Groń</name><ele>864</ele></wpt><wpt lat="49.6086863" lon="19.5091999"><name>Mokry Kozub</name><ele>842</ele></wpt><wpt lat="49.5960661" lon="19.5620002"><name>Jaworzyna</name><ele>940</ele></wpt><wpt lat="49.5994652" lon="19.5843376"><name>Kopisty</name><ele>1042</ele><wikidata>Q34873668</wikidata><wikipedia>ceb:Kopisty</wikipedia></wpt><wpt lat="49.5987451" lon="19.4705447"><name>Jałowcowy Garb</name><ele>1017</ele><wikidata>Q11723592</wikidata><wikipedia>pl:Jałowcowy Garb</wikipedia></wpt><wpt lat="49.5730542" lon="19.5293411"><name>Babia Góra / Babia hora</name><ele>1722.9</ele><wikidata>Q595780</wikidata><wikipedia>sk:Babia hora</wikipedia></wpt><wpt lat="49.5751277" lon="19.540206"><name>Gówniak</name><ele>1617</ele><wikidata>Q9283931</wikidata><wikipedia>pl:Gówniak</wikipedia></wpt><wpt lat="49.5545269" lon="19.5201825"><name>Jedľa</name><ele>1348</ele></wpt><wpt lat="49.5845729" lon="19.5633214"><name>Sokolica</name><ele>1367</ele><wikidata>Q9339200</wikidata><wikipedia>pl:Sokolica (Beskid Żywiecki)</wikipedia></wpt><wpt lat="49.5799685" lon="19.5568158"><name>Kępa</name><ele>1521</ele><wikidata>Q11752001</wikidata><wikipedia>pl:Kępa (Beskid Żywiecki)</wikipedia></wpt><wpt lat="49.5928369" lon="19.5920749"><name>Syhlec</name><ele>1146</ele><wikidata>Q31793585</wikidata><wikipedia>ceb:Sylhlec</wikipedia></wpt><wpt lat="49.5980495" lon="19.5937181"><name>Główniak</name><ele>1093</ele><wikidata>Q31793581</wikidata><wikipedia>ceb:Niżni Syhlec</wikipedia></wpt><wpt lat="49.5461118" lon="19.5679641"><name>Polany</name><ele>887.6</ele></wpt><wpt lat="49.5677131" lon="19.6181982"><name>Kamionek</name><ele>914</ele></wpt><wpt lat="49.6057056" lon="19.5983111"><name>Wyżni Syhlec</name><ele>1121</ele><wikidata>Q31793578</wikidata><wikipedia>ceb:Wyżni Syhlec</wikipedia></wpt><wpt lat="49.616372" lon="19.4406459"><name>Mała Mędralowa</name><ele>1049</ele></wpt><wpt lat="49.6328084" lon="19.5116664"><name>Kolisty Groń</name><ele>810</ele></wpt><wpt lat="49.6656282" lon="19.5399185"><name>Jaworówka</name><ele>789</ele></wpt><wpt lat="49.6698693" lon="19.5553928"><name>Surmiaków Groń</name><ele>768</ele></wpt><wpt lat="49.6713232" lon="19.5657448"><name>Niedżwiedziarka</name><ele>719</ele></wpt><wpt lat="49.6449651" lon="19.5836491"><name>Spalcenica</name><ele>854</ele></wpt><wpt lat="50.2518594" lon="16.8049354"><name>Czarna Góra</name><ele>1204.6</ele><wikidata>Q11691921</wikidata><wikipedia>pl:Czarna Góra (Masyw Śnieżnika)</wikipedia></wpt><wpt lat="50.4848074" lon="16.3410685"><name>Szczeliniec Wielki</name><ele>919</ele><wikidata>Q478005</wikidata><wikipedia>pl:Szczeliniec Wielki</wikipedia></wpt><wpt lat="50.8910033" lon="15.3038222"><name>Stóg Izerski</name><ele>1107.7</ele><wikidata>Q9347609</wikidata><wikipedia>pl:Stóg (Góry Izerskie)</wikipedia></wpt><wpt lat="49.1928778" lon="19.8012329"><name>Jakubina</name><ele>2194</ele><wikidata>Q3509792</wikidata><wikipedia>cs:Jakubina</wikipedia></wpt><wpt lat="49.1926302" lon="19.8409972"><name>Blyšť / Błyszcz</name><ele>2159</ele><wikidata>Q9183560</wikidata><wikipedia>pl:Błyszcz (Tatry)</wikipedia></wpt><wpt lat="49.1886074" lon="19.8426555"><name>Bystrá</name><ele>2248</ele><wikidata>Q1018683</wikidata><wikipedia>sk:Bystrá (vrch v Západných Tatrách)</wikipedia></wpt><wpt lat="49.2309899" lon="19.9038058"><name>Ciemniak / Temniak</name><ele>2096</ele><wikidata>Q11690580</wikidata><wikipedia>pl:Ciemniak</wikipedia></wpt><wpt lat="49.2358554" lon="19.9193358"><name>Malolučniak / Małołączniak</name><ele>2096</ele><wikidata>Q11772508</wikidata><wikipedia>pl:Małołączniak</wikipedia></wpt><wpt lat="49.2365066" lon="19.9322877"><name>Kondratova kopa / Kopa Kondracka</name><ele>2005</ele><wikidata>Q11743304</wikidata><wikipedia>pl:Kopa Kondracka</wikipedia></wpt><wpt lat="50.8338279" lon="15.6440624"><name>Chojnik</name><ele>612</ele><wikidata>Q9190217</wikidata><wikipedia>pl:Chojnik (Karkonosze)</wikipedia></wpt><wpt lat="53.1434666" lon="23.4857253"><name>Żukowa Góra</name><ele>202</ele></wpt><wpt lat="49.2142" lon="22.06012"><name>Koszarka</name><ele>794</ele></wpt><wpt lat="49.20042" lon="22.14389"><name>Wierch nad Łazem</name><ele>864</ele></wpt><wpt lat="49.2099818" lon="22.0770304"><name>Beskid</name><ele>809</ele></wpt><wpt lat="49.20639" lon="22.0984"><name>Głęboki Wierch</name><ele>888</ele></wpt><wpt lat="49.1530784" lon="22.2246642"><name>Czerenin / Černiny</name><ele>929</ele><wikidata>Q20493397</wikidata><wikipedia>pl:Czerenin</wikipedia></wpt><wpt lat="49.20978" lon="22.19994"><name>Kopa</name><ele>848</ele></wpt><wpt lat="49.21729" lon="22.16951"><name>Szczyciska</name><ele>748</ele></wpt><wpt lat="49.17982" lon="22.18221"><name>Rydoszowa</name><ele>880</ele><wikipedia>pl:Rydoszowa</wikipedia></wpt><wpt lat="49.20013" lon="22.2353"><name>Matragona</name><ele>990</ele><wikidata>Q11771577</wikidata><wikipedia>pl:Matragona</wikipedia></wpt><wpt lat="49.1879646" lon="22.1603902"><name>Gmyszów Wierch</name><ele>876</ele></wpt><wpt lat="49.1524" lon="22.29186"><name>Kiczerka</name><ele>910</ele></wpt><wpt lat="49.1357412" lon="22.320485"><name>Rypi Wierch</name><ele>1003</ele><wikidata>Q9324545</wikidata><wikipedia>pl:Rypi Wierch</wikipedia></wpt><wpt lat="49.1388" lon="22.30306"><name>Sinkowa</name><ele>995</ele></wpt><wpt lat="49.1711675" lon="22.2932557"><name>Rosocha</name><ele>1084</ele></wpt><wpt lat="49.21141" lon="22.30474"><name>Hon</name><ele>820</ele><wikidata>Q11710031</wikidata><wikipedia>pl:Hon</wikipedia></wpt><wpt lat="49.1801088" lon="22.2821876"><name>Hyrlata</name><ele>1103</ele><wikidata>Q9295546</wikidata><wikipedia>pl:Hyrlata</wikipedia></wpt><wpt lat="49.1893967" lon="22.2656695"><name>Berdo</name><ele>1041</ele><wikidata>Q9168979</wikidata><wikipedia>pl:Berdo (masyw Hyrlatej)</wikipedia></wpt><wpt lat="49.1128705" lon="22.4019559"><name>Pľaša / Płasza</name><ele>1163</ele><wikidata>Q11832520</wikidata><wikipedia>pl:Płasza (1163 m)</wikipedia></wpt><wpt lat="49.1302329" lon="22.3813734"><name>Kurników Beskid</name><ele>1037</ele></wpt><wpt lat="49.09138" lon="22.48502"><name>Borsukov vrch / Borsuk</name><ele>991</ele><wikidata>Q9177824</wikidata><wikipedia>pl:Borsuk (szczyt)</wikipedia></wpt><wpt lat="49.0984573" lon="22.4284081"><name>Ďurkovec / Dziurkowiec</name><ele>1189</ele><wikidata>Q9248977</wikidata><wikipedia>pl:Dziurkowiec</wikipedia></wpt><wpt lat="49.1309745" lon="22.394802"><name>Szczawnik</name><ele>1052</ele><wikidata>Q9350954</wikidata><wikipedia>pl:Szczawnik (1052 m)</wikipedia></wpt><wpt lat="49.1006052" lon="22.4671418"><name>Čelo / Czoło</name><ele>1158.79</ele><wikidata>Q11692316</wikidata><wikipedia>pl:Czoło (Bieszczady)</wikipedia></wpt><wpt lat="49.14961" lon="22.39992"><name>Fereczata</name><ele>1102</ele><wikidata>Q9259056</wikidata><wikipedia>pl:Fereczata</wikipedia></wpt><wpt lat="49.1633078" lon="22.3550128"><name>Szczawnik</name><ele>1098</ele><wikidata>Q9350953</wikidata><wikipedia>pl:Szczawnik (1098 m)</wikipedia></wpt><wpt lat="49.1740441" lon="22.3506935"><name>Małe Jasło</name><ele>1102.5</ele><wikidata>Q11772180</wikidata><wikipedia>pl:Małe Jasło</wikipedia></wpt><wpt lat="49.1580248" lon="22.3609415"><name>Duże Jasło</name><ele>1153.4</ele><wikidata>Q11723322</wikidata><wikipedia>pl:Jasło (góra)</wikipedia></wpt><wpt lat="49.1470497" lon="22.3662522"><name>Okrąglik / Kruhliak</name><ele>1101</ele><wikidata>Q11797129</wikidata><wikipedia>pl:Okrąglik (Bieszczady)</wikipedia></wpt><wpt lat="49.1821937" lon="22.3380383"><name>Worwosoka</name><ele>1024</ele></wpt><wpt lat="49.2008727" lon="22.3865768"><name>Krzemienna</name><ele>937</ele><wikidata>Q11748950</wikidata><wikipedia>pl:Krzemienna (szczyt)</wikipedia></wpt><wpt lat="49.2152001" lon="22.4088"><name>Czerenina</name><ele>981</ele><wikidata>Q11692097</wikidata><wikipedia>pl:Czerenina</wikipedia></wpt><wpt lat="49.1540331" lon="22.4460613"><name>Kiczerka</name><ele>755</ele></wpt><wpt lat="49.1351563" lon="22.4559608"><name>Jawornik</name><ele>1021</ele><wikidata>Q11723419</wikidata><wikipedia>pl:Jawornik (pasmo graniczne)</wikipedia></wpt><wpt lat="49.2005582" lon="22.4742025"><name>Wysokie Berdo</name><ele>968</ele><wikidata>Q9380253</wikidata><wikipedia>pl:Wysokie Berdo</wikipedia></wpt><wpt lat="49.18669" lon="22.47927"><name>Smerek</name><ele>1222</ele><wikidata>Q9338647</wikidata><wikipedia>pl:Smerek (Bieszczady)</wikipedia></wpt><wpt lat="49.2166839" lon="22.4685009"><name>Krysowa</name><ele>840</ele><wikidata>Q11748585</wikidata><wikipedia>pl:Krysowa</wikipedia></wpt><wpt lat="49.30231" lon="22.0966327"><name>Jasieniowa</name><ele>736</ele></wpt><wpt lat="49.26874" lon="22.06252"><name>Terpiak</name><ele>744</ele></wpt><wpt lat="49.2847513" lon="22.0914405"><name>Krasna</name><ele>658.2</ele></wpt><wpt lat="49.2273729" lon="22.1189856"><name>Feszów</name><ele>693</ele></wpt><wpt lat="49.28072" lon="22.13466"><name>Kiczera</name><ele>721</ele></wpt><wpt lat="49.26192" lon="22.11342"><name>Wierch</name><ele>611</ele></wpt><wpt lat="49.2344666" lon="22.0776776"><name>Czergów</name><ele>632</ele></wpt><wpt lat="49.3145996" lon="22.0456614"><name>Kowalówka</name><ele>615.5</ele></wpt><wpt lat="49.3345055" lon="22.047753"><name>Mogiła</name><ele>604.8</ele></wpt><wpt lat="49.3645834" lon="22.0468635"><name>Popowa</name><ele>667.4</ele><wikidata>Q11823942</wikidata><wikipedia>pl:Popowe Wierchy</wikipedia></wpt><wpt lat="49.34698" lon="22.06257"><name>Wierch</name><ele>598</ele></wpt><wpt lat="49.34732" lon="22.13767"><name>Polanka</name><ele>712</ele></wpt><wpt lat="49.3136453" lon="22.0829899"><name>Dyszowa</name><ele>718</ele></wpt><wpt lat="49.3203787" lon="22.0935557"><name>Karnaflowy Łaz</name><ele>708</ele></wpt><wpt lat="49.3612319" lon="22.0769581"><name>Stanków Łaz</name><ele>617.2</ele></wpt><wpt lat="49.35144" lon="22.10144"><name>Sokoliska</name><ele>634</ele></wpt><wpt lat="49.2392377" lon="22.2255953"><name>Babinka</name><ele>944</ele></wpt><wpt lat="49.25295" lon="22.19668"><name>Krąglica</name><ele>943</ele><wikidata>Q11750260</wikidata><wikipedia>pl:Krąglica</wikipedia></wpt><wpt lat="49.25445" lon="22.1614"><name>Dilec</name><ele>748</ele></wpt><wpt lat="49.30565" lon="22.18796"><name>Chryszczata</name><ele>998</ele><wikidata>Q4240556</wikidata><wikipedia>pl:Chryszczata</wikipedia></wpt><wpt lat="49.27239" lon="22.15908"><name>Maguryczne</name><ele>884</ele><wikidata>Q11766287</wikidata><wikipedia>pl:Maguryczne</wikipedia></wpt><wpt lat="49.2339549" lon="22.2662953"><name>Sasów</name><ele>1010</ele><wikidata>Q9333979</wikidata><wikipedia>pl:Sasów (szczyt)</wikipedia></wpt><wpt lat="49.2224" lon="22.27959"><name>Berest</name><ele>942</ele></wpt><wpt lat="49.2324176" lon="22.244078"><name>Przysłup</name><ele>1006</ele><wikidata>Q11830285</wikidata><wikipedia>pl:Przysłup (Wysoki Dział)</wikipedia></wpt><wpt lat="49.22656" lon="22.26092"><name>Feliszówka</name><ele>1006</ele><wikidata>Q4482474</wikidata><wikipedia>pl:Feliszówka</wikipedia></wpt><wpt lat="49.2398738" lon="22.2501334"><name>Wołosań</name><ele>1071</ele><wikidata>Q9378008</wikidata><wikipedia>pl:Wołosań</wikipedia></wpt><wpt lat="49.21948" lon="22.28937"><name>Osina</name><ele>963</ele><wikidata>Q63418</wikidata><wikipedia>pl:Osina (szczyt)</wikipedia></wpt><wpt lat="49.2429546" lon="22.3245949"><name>Łopieninka</name><ele>953</ele></wpt><wpt lat="49.2942" lon="22.28611"><name>Jawor</name><ele>827</ele><wikidata>Q11723395</wikidata><wikipedia>pl:Jawor (827 m)</wikipedia></wpt><wpt lat="49.26278" lon="22.30903"><name>Kiczera</name><ele>725</ele></wpt><wpt lat="49.28986" lon="22.32203"><name>Berdo</name><ele>890</ele></wpt><wpt lat="49.28462" lon="22.2998"><name>Walter</name><ele>836</ele><wikidata>Q9370643</wikidata><wikipedia>pl:Walter (szczyt)</wikipedia></wpt><wpt lat="49.29346" lon="22.24538"><name>Łysy Wierch</name><ele>815</ele></wpt><wpt lat="49.3023946" lon="22.2597076"><name>Patryja</name><ele>782</ele></wpt><wpt lat="49.3451224" lon="22.2183075"><name>Gawgan</name><ele>664</ele></wpt><wpt lat="49.32913" lon="22.15749"><name>Dział</name><ele>830</ele><wikidata>Q30910162</wikidata><wikipedia>pl:Dział (Wysoki Dział)</wikipedia></wpt><wpt lat="49.3756877" lon="22.2065"><name>Kiczera Choceńska</name><ele>654</ele></wpt><wpt lat="49.36908" lon="22.23556"><name>Gabrów Wierch</name><ele>742</ele></wpt><wpt lat="49.3627903" lon="22.1679734"><name>Suliła</name><ele>759</ele><wikidata>Q11836474</wikidata><wikipedia>pl:Suliła</wikipedia></wpt><wpt lat="49.36745" lon="22.14904"><name>Wysoki Wierch</name><ele>649</ele></wpt><wpt lat="49.3102" lon="22.26577"><name>Dzidowa</name><ele>713</ele><wikidata>Q11695590</wikidata><wikipedia>pl:Dzidowa</wikipedia></wpt><wpt lat="49.3110248" lon="22.2907932"><name>Kropiwne</name><ele>747</ele></wpt><wpt lat="49.32784" lon="22.26749"><name>Kiczera</name><ele>724</ele></wpt><wpt lat="49.36724" lon="22.2859"><name>Kiczera</name><ele>589</ele></wpt><wpt lat="49.35805" lon="22.24693"><name>Szczaby</name><ele>668</ele></wpt><wpt lat="49.35985" lon="22.2998"><name>Skrenin</name><ele>587</ele></wpt><wpt lat="49.22042" lon="22.39014"><name>Falowa</name><ele>968</ele><wikidata>Q9257876</wikidata><wikipedia>pl:Falowa</wikipedia></wpt><wpt lat="49.2364143" lon="22.3985356"><name>Kotylnica</name><ele>680</ele></wpt><wpt lat="49.2454287" lon="22.3388269"><name>Łopiennik</name><ele>1069</ele><wikidata>Q9394335</wikidata><wikipedia>pl:Łopiennik</wikipedia></wpt><wpt lat="49.2843271" lon="22.3706586"><name>Korbania</name><ele>894</ele><wikidata>Q11743601</wikidata><wikipedia>pl:Korbania</wikipedia></wpt><wpt lat="49.2682417" lon="22.3882002"><name>Klewa</name><ele>682</ele></wpt><wpt lat="49.27544" lon="22.32512"><name>Durna</name><ele>979</ele><wikidata>Q9213008</wikidata><wikipedia>pl:Durna</wikipedia></wpt><wpt lat="49.2550117" lon="22.479916"><name>Tworylczyk (Kiczera Dworska)</name><ele>617</ele></wpt><wpt lat="49.2466044" lon="22.4680095"><name>Żołobina</name><ele>780</ele><wikidata>Q9397562</wikidata><wikipedia>pl:Żołobina</wikipedia></wpt><wpt lat="49.2239425" lon="22.4646225"><name>Siwarna</name><ele>924</ele><wikidata>Q9337333</wikidata><wikipedia>pl:Siwarna</wikipedia></wpt><wpt lat="49.2332143" lon="22.4701838"><name>Bukowina</name><ele>911</ele><wikidata>Q9181847</wikidata><wikipedia>pl:Bukowina (Bieszczady)</wikipedia></wpt><wpt lat="49.2258611" lon="22.4946934"><name>Stoły</name><ele>968</ele><wikidata>Q9346350</wikidata><wikipedia>pl:Stoły (Bieszczady)</wikipedia></wpt><wpt lat="49.2259749" lon="22.4166232"><name>Kiczera</name><ele>931</ele></wpt><wpt lat="49.3004711" lon="22.4226571"><name>Monaster</name><ele>562</ele></wpt><wpt lat="49.30409" lon="22.46723"><name>Bahaniec</name><ele>514</ele></wpt><wpt lat="49.3302549" lon="22.3390361"><name>Markowska</name><ele>748.1</ele></wpt><wpt lat="49.3738853" lon="22.3605113"><name>Biały Wierch</name><ele>607</ele></wpt><wpt lat="49.37715" lon="22.36096"><name>Szczub</name><ele>606</ele></wpt><wpt lat="49.3826" lon="22.34366"><name>Patrola</name><ele>613</ele></wpt><wpt lat="49.3550364" lon="22.3886718"><name>Wierchy</name><ele>635</ele></wpt><wpt lat="49.314" lon="22.4200963"><name>Kiczora</name><ele>613</ele></wpt><wpt lat="49.30956" lon="22.45485"><name>Łany</name><ele>554</ele></wpt><wpt lat="49.3278937" lon="22.4813115"><name>Wysoki Horb</name><ele>604</ele></wpt><wpt lat="49.3264583" lon="22.4691261"><name>Baranda</name><ele>621</ele></wpt><wpt lat="49.3545211" lon="22.4415965"><name>Łokieć</name><ele>435</ele></wpt><wpt lat="49.3593319" lon="22.4794164"><name>Kiczora</name><ele>498</ele></wpt><wpt lat="49.3547862" lon="22.4868156"><name>Kiczera</name><ele>505</ele></wpt><wpt lat="49.3839538" lon="22.4927007"><name>Jawor</name><ele>741</ele></wpt><wpt lat="49.40932" lon="22.45722"><name>Żukowiec</name><ele>502</ele></wpt><wpt lat="50.31155" lon="22.35151"><name>Łysa Góra</name><ele>185</ele></wpt><wpt lat="49.0347998" lon="22.8089627"><name>Kińczyk Bukowski/Кінчик Буковський</name><ele>1251</ele><wikidata>Q11739581</wikidata><wikipedia>pl:Kińczyk Bukowski</wikipedia></wpt><wpt lat="49.0401218" lon="22.6802844"><name>Wołowe Berdo/Волове Бердо</name><ele>1121</ele></wpt><wpt lat="49.0230285" lon="22.8226383"><name>Rozsypaniec/Розсипанець</name><ele>1146</ele><wikidata>Q9323328</wikidata><wikipedia>pl:Rozsypaniec (pasmo graniczne)</wikipedia></wpt><wpt lat="49.09215" lon="22.51348"><name>Čierťaž / Czertez</name><ele>1072</ele><wikidata>Q9198729</wikidata><wikipedia>pl:Czerteż (Bieszczady)</wikipedia></wpt><wpt lat="49.09833" lon="22.5088"><name>Mogilki</name><ele>1070</ele></wpt><wpt lat="49.12107" lon="22.51777"><name>Młynów Wierch</name><ele>1041</ele></wpt><wpt lat="49.0999341" lon="22.5758797"><name>Wielka Rawka</name><ele>1304</ele><wikidata>Q9372827</wikidata><wikipedia>pl:Wielka Rawka</wikipedia></wpt><wpt lat="49.1096595" lon="22.5738439"><name>Mała Rawka</name><ele>1271</ele><wikidata>Q11772095</wikidata><wikipedia>pl:Mała Rawka</wikipedia></wpt><wpt lat="49.11704" lon="22.54506"><name>Zdegowa</name><ele>1065</ele></wpt><wpt lat="49.05777" lon="22.6461629"><name>Kańczowa/Каньчова</name><ele>1115</ele></wpt><wpt lat="49.0826307" lon="22.6156314"><name>Mała Semanowa/Мала Семенова</name><ele>1071</ele></wpt><wpt lat="49.07194" lon="22.63197"><name>Caresty</name><ele>998</ele></wpt><wpt lat="49.05773" lon="22.67102"><name>Kiczera Manzina</name><ele>965</ele></wpt><wpt lat="49.08747" lon="22.60351"><name>Wielka Semanowa/Велика Семенова</name><ele>1071</ele></wpt><wpt lat="49.1657512" lon="22.5252927"><name>Osadzki Wierch</name><ele>1253</ele><wikidata>Q11799496</wikidata><wikipedia>pl:Osadzki Wierch</wikipedia></wpt><wpt lat="49.1673889" lon="22.5123835"><name>Hnatowe Berdo</name><ele>1187</ele><wikidata>Q9293155</wikidata><wikipedia>pl:Hnatowe Berdo</wikipedia></wpt><wpt lat="49.21274" lon="22.5218"><name>Magurka (Magura Hulszczańska)</name><ele>911</ele><wikidata>Q11766273</wikidata><wikipedia>pl:Magurka (Bieszczady)</wikipedia></wpt><wpt lat="49.19961" lon="22.50176"><name>Magurzec</name><ele>851</ele></wpt><wpt lat="49.1916677" lon="22.5839564"><name>Dwernik Kamień</name><ele>1004</ele><wikidata>Q11695346</wikidata><wikipedia>pl:Dwernik Kamień</wikipedia></wpt><wpt lat="49.1800185" lon="22.5711123"><name>Jawornik</name><ele>1047</ele><wikidata>Q11723421</wikidata><wikipedia>pl:Jawornik (pasmo połonin)</wikipedia></wpt><wpt lat="49.2174586" lon="22.5585708"><name>Dziążkowiec</name><ele>693</ele></wpt><wpt lat="49.19875" lon="22.5406"><name>Jaworniki</name><ele>885</ele></wpt><wpt lat="49.1647803" lon="22.6446551"><name>Magura Stuposiańska</name><ele>1016</ele><wikidata>Q11766267</wikidata><wikipedia>pl:Magura Stuposiańska</wikipedia></wpt><wpt lat="49.16197" lon="22.60424"><name>Caryńska</name><ele>928</ele></wpt><wpt lat="49.1381868" lon="22.6034936"><name>Kruhly Wierch</name><ele>1297</ele><wikidata>Q11748441</wikidata><wikipedia>pl:Kruhly Wierch</wikipedia></wpt><wpt lat="49.1811244" lon="22.6504158"><name>Kosowiec</name><ele>955</ele><wikidata>Q11744096</wikidata><wikipedia>pl:Kosowiec</wikipedia></wpt><wpt lat="49.2069231" lon="22.6375062"><name>Dwernik</name><ele>692</ele></wpt><wpt lat="49.0513857" lon="22.7270745"><name>Menczył</name><ele>1008</ele><wikidata>Q11777352</wikidata><wikipedia>pl:Menczył (Bieszczady)</wikipedia></wpt><wpt lat="49.0676303" lon="22.7496339"><name>Kiczerka</name><ele>1021</ele></wpt><wpt lat="49.08232" lon="22.75663"><name>Kopa Bukowska</name><ele>1320</ele><wikidata>Q6430910</wikidata><wikipedia>pl:Kopa Bukowska</wikipedia></wpt><wpt lat="49.0861" lon="22.73852"><name>Krzemień</name><ele>1335</ele><wikidata>Q5159023</wikidata><wikipedia>pl:Krzemień (Bieszczady)</wikipedia></wpt><wpt lat="49.0926942" lon="22.7409332"><name>Bukowe Berdo</name><ele>1311</ele><wikidata>Q9181803</wikidata><wikipedia>pl:Bukowe Berdo</wikipedia></wpt><wpt lat="49.12597" lon="22.69497"><name>Widełki</name><ele>1016</ele></wpt><wpt lat="49.1202494" lon="22.7502171"><name>Muczne</name><ele>861</ele></wpt><wpt lat="49.11026" lon="22.67904"><name>Kiczera</name><ele>972</ele><wikidata>Q11738910</wikidata><wikipedia>pl:Kiczera (pasmo połonin)</wikipedia></wpt><wpt lat="49.07434" lon="22.77878"><name>Wołowy</name><ele>1248</ele><wikidata>Q11837962</wikidata><wikipedia>pl:Wołowy Garb</wikipedia></wpt><wpt lat="49.0885" lon="22.85083"><name>Kiczera Sokolicka</name><ele>837</ele><wikidata>Q11738912</wikidata><wikipedia>pl:Kiczera Sokolicka</wikipedia></wpt><wpt lat="49.1689784" lon="22.7338825"><name>Kiczera Dydiowska</name><ele>799</ele><wikidata>Q11738913</wikidata><wikipedia>pl:Kiczera Dydiowska</wikipedia></wpt><wpt lat="49.1870795" lon="22.7032715"><name>Czeresznia</name><ele>816</ele></wpt><wpt lat="49.1955481" lon="22.6954828"><name>Czereszenka</name><ele>771</ele></wpt><wpt lat="49.0415028" lon="22.8623588"><name>Szczołb</name><ele>819</ele></wpt><wpt lat="49.04786" lon="22.85783"><name>Kiczera Beniowska</name><ele>861</ele><wikidata>Q11738911</wikidata><wikipedia>pl:Kiczera Beniowska</wikipedia></wpt><wpt lat="49.2318296" lon="22.5391415"><name>Pańskie Berdo</name><ele>689</ele></wpt><wpt lat="49.225902" lon="22.5612941"><name>Kiczera</name><ele>649</ele></wpt><wpt lat="49.24162" lon="22.52343"><name>Ryli</name><ele>622</ele></wpt><wpt lat="49.2660769" lon="22.5487833"><name>Hulskie</name><ele>846</ele></wpt><wpt lat="49.23308" lon="22.6578"><name>Trohaniec</name><ele>939</ele><wikidata>Q9361699</wikidata><wikipedia>pl:Trohaniec</wikipedia></wpt><wpt lat="49.2818593" lon="22.6334201"><name>Haniów</name><ele>656</ele></wpt><wpt lat="49.3056975" lon="22.6134507"><name>Kolasznia</name><ele>746</ele><wikidata>Q11740967</wikidata><wikipedia>pl:Kolasznia</wikipedia></wpt><wpt lat="49.3204248" lon="22.5166278"><name>Flasza</name><ele>485</ele></wpt><wpt lat="49.3622913" lon="22.5130804"><name>Kiczera Doliszna</name><ele>553</ele></wpt><wpt lat="49.3576544" lon="22.5212108"><name>Kiczera Serednia</name><ele>597</ele></wpt><wpt lat="49.35563" lon="22.52916"><name>Kiczera Horiszna</name><ele>611</ele></wpt><wpt lat="49.358242" lon="22.5544161"><name>Łabiska</name><ele>618</ele></wpt><wpt lat="49.3672723" lon="22.5723352"><name>Gielec</name><ele>606</ele></wpt><wpt lat="49.3737299" lon="22.5980343"><name>Kiczera</name><ele>673</ele></wpt><wpt lat="49.2620915" lon="22.70557"><name>Berdo</name><ele>785</ele></wpt><wpt lat="49.2187872" lon="22.7003828"><name>Kiczerka</name><ele>678</ele></wpt><wpt lat="49.3615645" lon="22.684674"><name>Jasień</name><ele>734</ele></wpt><wpt lat="49.5987091" lon="22.6466776"><name>Suchy Obycz</name><ele>617.7</ele></wpt><wpt lat="49.63653" lon="22.63258"><name>Knasina</name><ele>555</ele></wpt><wpt lat="49.6840871" lon="22.6257876"><name>Kopystańka</name><ele>541</ele><wikidata>Q11743566</wikidata><wikipedia>pl:Kopystańka</wikipedia></wpt><wpt lat="49.6000047" lon="22.6856648"><name>Kiczera Wysoka</name><ele>575</ele></wpt><wpt lat="49.62692" lon="22.67735"><name>Leszczyńska Góra</name><ele>461</ele></wpt><wpt lat="49.6925338" lon="22.6904914"><name>Góra Szybenica</name><ele>496</ele></wpt><wpt lat="49.7703831" lon="22.7721273"><name>Kopiec Tatarski</name><ele>350.3</ele><wikidata>Q11743506</wikidata><wikipedia>pl:Kopiec Tatarski</wikipedia></wpt><wpt lat="50.24172" lon="23.50109"><name>Jozkowa Góra</name><ele>317</ele></wpt><wpt lat="50.2547706" lon="23.5022115"><name>Dąbrowa Góra</name><ele>300</ele></wpt><wpt lat="50.33172" lon="23.43242"><name>Szwedowa Gora</name><ele>325</ele></wpt><wpt lat="50.45167" lon="16.7532205"><name>Kłodzka Góra</name><ele>757.07</ele><wikidata>Q11752132</wikidata><wikipedia>pl:Kłodzka Góra</wikipedia></wpt><wpt lat="49.4486521" lon="19.105371"><name>Kotarz</name><ele>1107</ele></wpt><wpt lat="49.4552652" lon="19.1042272"><name>Muńcuł</name><ele>1165</ele></wpt><wpt lat="50.6825078" lon="16.4652803"><name>Mała Sowa</name><ele>971.9</ele><wikidata>Q11772101</wikidata><wikipedia>pl:Mała Sowa</wikipedia></wpt><wpt lat="52.0503257" lon="21.0197733"><name>Górki Szymona</name><ele>107.5</ele></wpt><wpt lat="51.3072222" lon="16.9313889"><name>Żniwna Kopa</name><ele>240.8</ele></wpt><wpt lat="49.6921008" lon="22.0835136"><name>Czarna Góra</name><ele>448</ele></wpt><wpt lat="50.8017611" lon="15.4379831"><name>Mrtvý vrch</name><ele>1059</ele></wpt><wpt lat="50.7866032" lon="15.4762795"><name>Kamenec</name><ele>1238</ele></wpt><wpt lat="50.7914786" lon="15.5140644"><name>Szrenica</name><ele>1361.3</ele><wikidata>Q1424223</wikidata><wikipedia>pl:Szrenica</wikipedia></wpt><wpt lat="50.7977778" lon="15.4702778"><name>Mumlawski Wierch / Mumlavská hora</name><ele>1217</ele><wikidata>Q3564686</wikidata><wikipedia>pl:Mumlawski Wierch</wikipedia></wpt><wpt lat="50.1180556" lon="16.6277778"><name>Kamyk</name><ele>728.4</ele><wikidata>Q11734699</wikidata><wikipedia>pl:Kamyk (Góry Bystrzyckie)</wikipedia></wpt><wpt lat="50.1513889" lon="16.6777778"><name>Szubieniczna Góra</name><ele>471.6</ele></wpt><wpt lat="50.1458999" lon="16.7308302"><name>Urwista</name><ele>794.7</ele></wpt><wpt lat="50.1549183" lon="16.7263982"><name>Spalona</name><ele>728.3</ele></wpt><wpt lat="50.3911276" lon="18.9306944"><name>Kopiec Wyzwolenia</name><ele>356</ele><wikidata>Q11743510</wikidata><wikipedia>pl:Kopiec Wyzwolenia</wikipedia></wpt><wpt lat="49.531092" lon="19.3188212"><name>Góra Pięciu Kopców</name><ele>1534.1</ele><wikidata>Q9283478</wikidata><wikipedia>pl:Góra Pięciu Kopców</wikipedia></wpt><wpt lat="50.1346995" lon="16.6779353"><name>Sikornik</name><ele>549.9</ele></wpt><wpt lat="50.983233" lon="14.9065196"><name>Mittlerer Steinberg</name><ele>347</ele><wikidata>Q31305990</wikidata></wpt><wpt lat="50.7642301" lon="15.6283705"><name>Ptasi Kamień / Čihadlo</name><ele>1215.2</ele><wikidata>Q11381695</wikidata><wikipedia>pl:Ptasi Kamień</wikipedia></wpt><wpt lat="50.7252134" lon="15.8303848"><name>Łysocina / Lysečinská hora</name><ele>1188.8</ele></wpt><wpt lat="50.7533311" lon="15.6042114"><name>Pevnost</name><ele>1012</ele><wikidata>Q12045232</wikidata></wpt><wpt lat="50.7558333" lon="15.6755556"><name>Smogornia / Stříbrný hřbet</name><ele>1488.6</ele><wikidata>Q3487004</wikidata><wikipedia>pl:Smogornia</wikipedia></wpt><wpt lat="53.00717" lon="18.22123"><name>Szwedzka Góra</name><ele>88</ele></wpt><wpt lat="53.1623661" lon="18.0686868"><name>Góra Zamkowa</name><ele>95.6</ele></wpt><wpt lat="54.2813999" lon="22.2924703"><name>Gołdapska Góra</name><ele>272</ele></wpt><wpt lat="50.1574509" lon="16.7908713"><name>Klepáč / Trójmorski Wierch</name><ele>1144</ele><wikidata>Q3509018</wikidata><wikipedia>pl:Trójmorski Wierch</wikipedia></wpt><wpt lat="50.1716359" lon="16.7987889"><name>Hleďsebe / Puchacz</name><ele>1190</ele><wikidata>Q11830851</wikidata><wikipedia>pl:Puchacz (Masyw Śnieżnika)</wikipedia></wpt><wpt lat="49.1999949" lon="19.9944921"><name>Tichý kopec</name><ele>1949</ele><wikipedia>pl:Zadnia Garajowa Kopa</wikipedia></wpt><wpt lat="49.2013685" lon="20.0053688"><name>Tichý vrch</name><ele>1979</ele><wikidata>Q11690548</wikidata><wikipedia>pl:Cichy Wierch</wikipedia></wpt><wpt lat="49.1677553" lon="20.0934921"><name>Veľká dračia hlava</name><ele>2254</ele></wpt><wpt lat="49.1738006" lon="20.091497"><name>Ťažký štít</name><ele>2500</ele><wikidata>Q836644</wikidata><wikipedia>sk:Ťažký štít</wikipedia></wpt><wpt lat="49.1926757" lon="20.0549059"><name>Mnich</name><ele>2067</ele><wikidata>Q6885977</wikidata><wikipedia>pl:Mnich (Tatry)</wikipedia></wpt><wpt lat="49.1835721" lon="20.0939866"><name>Ťažká veža</name><ele>2254</ele><wikidata>Q11690726</wikidata></wpt><wpt lat="49.1984606" lon="20.1019689"><name>Malý Mlynár</name><ele>1973</ele><wikidata>Q11772569</wikidata><wikipedia>pl:Mały Młynarz</wikipedia></wpt><wpt lat="50.8950154" lon="16.7264961"><name>Gozdnica</name><ele>317.6</ele></wpt><wpt lat="50.913016" lon="15.2641324"><name>Rapická hora</name><ele>708</ele></wpt><wpt lat="50.8838889" lon="16.7369444"><name>Stolna</name><ele>368.4</ele></wpt><wpt lat="50.650715" lon="16.5336695"><name>Rymarz</name><ele>913</ele><wikidata>Q9324422</wikidata><wikipedia>pl:Rymarz (Góry Sowie)</wikipedia></wpt><wpt lat="49.5199443" lon="18.9320207"><name>Siwoniowski Wierch</name><ele>798</ele></wpt><wpt lat="49.5182499" lon="18.9133959"><name>Stefanka</name><ele>722</ele></wpt><wpt lat="49.5492387" lon="19.5300276"><name>Przypór / Prípor</name><ele>1010</ele></wpt><wpt lat="49.1031092" lon="22.4533415"><name>Jarabá skala</name><ele>1167.20</ele></wpt><wpt lat="49.286348" lon="20.207069"><name>Príslop</name><ele>1214</ele><wikidata>Q11830268</wikidata><wikipedia>sk:Príslop (Spišská Magura)</wikipedia></wpt><wpt lat="49.38026" lon="20.555501"><name>Wysoka / Vysoké Skalky</name><ele>1050</ele><wikidata>Q1955808</wikidata><wikipedia>sk:Vysoké skalky</wikipedia></wpt><wpt lat="49.4013" lon="20.605774"><name>Szczob</name><ele>920</ele><wikidata>Q28676197</wikidata><wikipedia>pl:Szczob (920 m)</wikipedia></wpt><wpt lat="49.0908988" lon="22.5471812"><name>Kamienna / Kamenná lúka</name><ele>1200.93</ele><wikidata>Q11734383</wikidata><wikipedia>pl:Kamienna (Bieszczady)</wikipedia></wpt><wpt lat="49.246334" lon="19.784356"><name>Bobrowiec / Bobrovec</name><ele>1663</ele><wikidata>Q9174818</wikidata><wikipedia>pl:Bobrowiec (Tatry)</wikipedia></wpt><wpt lat="49.4884868" lon="18.9642999"><name>Skaľanka</name><ele>867</ele></wpt><wpt lat="54.5440279" lon="17.760746"><name>Czartoryja</name><ele>51.3</ele></wpt><wpt lat="50.6626532" lon="16.4555174"><name>Sokół</name><ele>862.3</ele><wikidata>Q9339249</wikidata><wikipedia>pl:Sokół (góra)</wikipedia></wpt><wpt lat="50.8375545" lon="16.7100567"><name>Radunia</name><ele>577.6</ele></wpt><wpt lat="50.8179677" lon="16.6328672"><name>Szczytna</name><ele>466</ele><wikidata>Q9351182</wikidata></wpt><wpt lat="50.846277" lon="16.7802793"><name>Winna Góra</name><ele>316.9</ele></wpt><wpt lat="50.8376363" lon="16.7497328"><name>Oleszenka</name><ele>388</ele></wpt><wpt lat="49.82197" lon="21.33995"><name>Kaminska Góra</name><ele>508</ele></wpt><wpt lat="49.8131863" lon="21.3515096"><name>Liwocz</name><ele>562</ele><wikidata>Q11762218</wikidata><wikipedia>pl:Liwocz</wikipedia></wpt><wpt lat="49.8278019" lon="21.3385444"><name>Mały Liwocz</name><ele>465</ele></wpt><wpt lat="49.78078" lon="21.50236"><name>Babia Góra</name><ele>387</ele></wpt><wpt lat="52.3984122" lon="16.9784578"><name>Kopiec Wolności</name><ele>100</ele><wikidata>Q11743507</wikidata><wikipedia>pl:Kopiec Wolności</wikipedia></wpt><wpt lat="49.84621" lon="20.95725"><name>Babia Góra</name><ele>327</ele></wpt><wpt lat="49.84276" lon="20.99262"><name>Golanka</name><ele>351</ele></wpt><wpt lat="49.84159" lon="21.02375"><name>Nosalowa</name><ele>365</ele></wpt><wpt lat="49.84437" lon="21.08796"><name>Brzanka</name><ele>534</ele></wpt><wpt lat="49.8528" lon="21.08443"><name>Ptasznik (Ptasia Góra)</name><ele>451</ele></wpt><wpt lat="49.746" lon="21.21082"><name>Kamieniec</name><ele>424</ele></wpt><wpt lat="49.84972" lon="21.10229"><name>Wielka Góra Uniszowska</name><ele>432</ele></wpt><wpt lat="49.83928" lon="21.12453"><name>Jura</name><ele>432</ele></wpt><wpt lat="49.84765" lon="21.13234"><name>Ostry Kamień (Pasia)</name><ele>527</ele></wpt><wpt lat="49.8462306" lon="21.1443511"><name>Wielka Góra</name><ele>502</ele></wpt><wpt lat="49.84926" lon="21.16113"><name>Kamionka</name><ele>513</ele></wpt><wpt lat="49.84714" lon="21.17242"><name>Krzyzowa</name><ele>480</ele></wpt><wpt lat="49.84634" lon="21.18453"><name>Wysoki Łaz</name><ele>454</ele></wpt><wpt lat="49.85379" lon="21.20228"><name>Gilowa Góra</name><ele>502</ele></wpt><wpt lat="49.77054" lon="21.29933"><name>Łysa Góra</name><ele>368</ele></wpt><wpt lat="49.85528" lon="21.27098"><name>Wisowa</name><ele>406</ele></wpt><wpt lat="49.84297" lon="21.29697"><name>Kopaniny</name><ele>419</ele></wpt><wpt lat="49.6133119" lon="19.462447"><name>Mędralowa</name><ele>1169</ele><wikidata>Q11787912</wikidata><wikipedia>pl:Mędralowa</wikipedia></wpt><wpt lat="49.5812236" lon="19.4995779"><name>Mała Babia Góra (Cyl) / Malá Babia hora</name><ele>1517</ele><wikidata>Q11772027</wikidata><wikipedia>pl:Mała Babia Góra</wikipedia></wpt><wpt lat="49.6131518" lon="19.5863963"><name>Brożki</name><ele>1236</ele><wikidata>Q56338271</wikidata><wikipedia>pl:Brożki (Beskid Żywiecki)</wikipedia></wpt><wpt lat="49.705098" lon="18.8285425"><name>Skalica</name><ele>487</ele></wpt><wpt lat="50.2188749" lon="17.0155449"><name>Travná hora</name><ele>1125</ele><wikidata>Q9361389</wikidata><wikipedia>cs:Travná hora</wikipedia></wpt><wpt lat="49.6788785" lon="18.8045877"><name>Velká Čantoryje / Czantoria Wielka</name><ele>995</ele><wikidata>Q1305490</wikidata><wikipedia>pl:Czantoria Wielka</wikipedia></wpt><wpt lat="50.1807096" lon="23.391156"><name>Kruszyna</name><ele>283</ele></wpt><wpt lat="49.67429" lon="20.76079"><name>Kumienowiecka Góra</name><ele>542</ele></wpt><wpt lat="49.71682" lon="20.7587"><name>Kobylnica</name><ele>579</ele></wpt><wpt lat="49.74127" lon="20.75003"><name>Dział</name><ele>450</ele></wpt><wpt lat="49.72175" lon="20.79386"><name>Berdychów</name><ele>560</ele></wpt><wpt lat="49.74214" lon="20.79782"><name>Żebraczka</name><ele>502</ele></wpt><wpt lat="49.73317" lon="20.8755"><name>Falkowa</name><ele>506</ele></wpt><wpt lat="49.81879" lon="20.75721"><name>Mogiła</name><ele>478</ele></wpt><wpt lat="49.80483" lon="20.69041"><name>Habalina</name><ele>453</ele></wpt><wpt lat="49.84732" lon="20.68132"><name>Dąbrowa</name><ele>278</ele></wpt><wpt lat="49.81539" lon="20.81058"><name>Styr</name><ele>460</ele></wpt><wpt lat="49.82414" lon="20.74394"><name>Patria</name><ele>471</ele></wpt><wpt lat="49.78673" lon="20.83217"><name>Rosulec (Jastrzębia Góra)</name><ele>515</ele></wpt><wpt lat="49.81555" lon="20.86415"><name>Budzyń (Sucha Góra)</name><ele>396</ele></wpt><wpt lat="49.82804" lon="20.71056"><name>Głowaczka</name><ele>406</ele></wpt><wpt lat="49.7562177" lon="18.9455606"><name>Przykra</name><ele>824</ele></wpt><wpt lat="49.6060908" lon="18.8769742"><name>Beskid</name><ele>824</ele></wpt><wpt lat="49.76154" lon="20.6525"><name>Ostra Góra płn</name><ele>455</ele></wpt><wpt lat="49.77362" lon="20.63188"><name>Czyżowiec</name><ele>418</ele></wpt><wpt lat="49.69046" lon="20.62685"><name>Zamczysko</name><ele>607</ele></wpt><wpt lat="49.80075" lon="20.63443"><name>Ostra Góra</name><ele>335</ele></wpt><wpt lat="49.77082" lon="20.29751"><name>Kostrza</name><ele>730</ele><wikidata>Q11744155</wikidata><wikipedia>pl:Kostrza (Beskid Wyspowy)</wikipedia></wpt><wpt lat="49.67918" lon="20.66588"><name>Kurowska Góra</name><ele>403</ele></wpt><wpt lat="49.72405" lon="20.62808"><name>Jodłowiec</name><ele>482</ele></wpt><wpt lat="51.5015041" lon="14.8075834"><name>Feuerturmberg</name><ele>134</ele></wpt><wpt lat="51.5075786" lon="14.8061079"><name>Gottesberg</name><ele>135</ele></wpt><wpt lat="49.0042522" lon="22.8691997"><name>Piniaszkowy/Піняшковий</name><ele>960</ele><wikidata>Q11817142</wikidata><wikipedia>pl:Piniaszkowy</wikipedia></wpt><wpt lat="49.0023924" lon="22.847096"><name>Opołonek/Ополонек</name><ele>1028</ele><wikidata>Q153114</wikidata><wikipedia>pl:Opołonek</wikipedia></wpt><wpt lat="49.0471571" lon="22.6599388"><name>Połoninka/Полонинка</name><ele>1104</ele></wpt><wpt lat="50.4338889" lon="16.8577778"><name>Mikowa</name><ele>568</ele></wpt><wpt lat="50.8573497" lon="15.4058633"><name>Sine Skałki</name><ele>1121.8</ele><wikidata>Q9337118</wikidata><wikipedia>pl:Sine Skałki</wikipedia></wpt><wpt lat="50.85" lon="15.4202778"><name>Wysoka Kopa</name><ele>1126</ele><wikidata>Q3506201</wikidata><wikipedia>pl:Wysoka Kopa</wikipedia></wpt><wpt lat="50.1210086" lon="19.1022711"><name>Klimont</name><ele>305</ele><wikidata>Q9283428</wikidata><wikipedia>pl:Klimont</wikipedia></wpt><wpt lat="49.4561144" lon="20.3199378"><name>Wdżar</name><ele>767</ele><wikidata>Q9371792</wikidata><wikipedia>pl:Wdżar</wikipedia></wpt><wpt lat="49.5781989" lon="18.9863884"><name>Gańczorka</name><ele>909</ele><wikidata>Q11699509</wikidata><wikipedia>pl:Gańczorka</wikipedia></wpt><wpt lat="49.5633349" lon="18.9739013"><name>Tyniok</name><ele>891</ele></wpt><wpt lat="49.5275508" lon="18.8536843"><name>Wawrzaczów Groń</name><ele>687.8</ele></wpt><wpt lat="49.6148387" lon="19.7115762"><name>Góra Plebańska</name><ele>680</ele></wpt><wpt lat="50.4068621" lon="16.8510926"><name>Jawornik Wielki</name><ele>871.7</ele><wikidata>Q11723420</wikidata><wikipedia>pl:Jawornik Wielki</wikipedia></wpt><wpt lat="54.7632571" lon="18.4049802"><name>Orla Góra</name><ele>29.8</ele></wpt><wpt lat="50.4172222" lon="16.8463889"><name>Trzeboń</name><ele>712</ele><wikidata>Q31792816</wikidata></wpt><wpt lat="50.4371194" lon="16.8700987"><name>Pustelnik</name><ele>485</ele></wpt><wpt lat="50.4205202" lon="16.8682109"><name>Kikoł</name><ele>670.5</ele><wikidata>Q31792831</wikidata></wpt><wpt lat="50.4244921" lon="16.8513942"><name>Ciecierza</name><ele>654</ele><wikidata>Q31792824</wikidata></wpt><wpt lat="49.6512688" lon="18.8064815"><name>Malý Sošov / Soszów Mały</name><ele>762</ele><wikidata>Q12035154</wikidata><wikipedia>cs:Malý Sošov</wikipedia></wpt><wpt lat="49.6230402" lon="18.8206016"><name>Česlar / Cieślar</name><ele>918.3</ele><wikidata>Q11379614</wikidata><wikipedia>pl:Cieślar</wikipedia></wpt><wpt lat="49.5965466" lon="18.827413"><name>Kyrkawica/Krkavice</name><ele>973</ele><wikidata>Q11751811</wikidata><wikipedia>pl:Kyrkawica</wikipedia></wpt><wpt lat="49.6144507" lon="18.8242521"><name>Malý Stožek / Stożek Mały</name><ele>843</ele><wikidata>Q9346360</wikidata><wikipedia>pl:Stożek Mały (Beskid Śląski)</wikipedia></wpt><wpt lat="49.6187329" lon="19.068706"><name>Glinne</name><ele>1034</ele><wikidata>Q9268700</wikidata><wikipedia>pl:Glinne (góra)</wikipedia></wpt><wpt lat="49.6256617" lon="19.062229"><name>Magurka</name><ele>977</ele></wpt><wpt lat="49.6304265" lon="19.0431224"><name>Magurka Radziechowska</name><ele>1108</ele><wikidata>Q11766281</wikidata><wikipedia>pl:Magurka Radziechowska</wikipedia></wpt><wpt lat="49.6286368" lon="19.0163889"><name>Magurka Wiślańska</name><ele>1140</ele><wikidata>Q280831</wikidata><wikipedia>pl:Magurka Wiślańska</wikipedia></wpt><wpt lat="49.6114783" lon="19.0105355"><name>Barania Góra</name><ele>1220</ele><wikidata>Q787991</wikidata><wikipedia>pl:Barania Góra</wikipedia></wpt><wpt lat="49.7777177" lon="19.3662441"><name>Potrójna</name><ele>884</ele><wikidata>Q11825437</wikidata><wikipedia>pl:Potrójna_(883_m)</wikipedia></wpt><wpt lat="49.8226676" lon="19.1649797"><name>Hrobacza Łąka</name><ele>828</ele><wikidata>Q9294453</wikidata><wikipedia>pl:Chrobacza Łąka (szczyt)</wikipedia></wpt><wpt lat="49.7916942" lon="19.249352"><name>Kiczera</name><ele>827</ele><wikidata>Q11738906</wikidata><wikipedia>pl:Kiczera (Beskid Mały)</wikipedia></wpt><wpt lat="49.7635422" lon="19.3962045"><name>Łamana Skała</name><ele>929</ele><wikidata>Q11765842</wikidata><wikipedia>pl:Łamana Skała</wikipedia></wpt><wpt lat="49.7887467" lon="19.4431583"><name>Leskowiec</name><ele>922</ele><wikidata>Q11754829</wikidata><wikipedia>pl:Leskowiec</wikipedia></wpt><wpt lat="49.7732155" lon="19.4099441"><name>Na Beskidzie</name><ele>863</ele><wikidata>Q11788430</wikidata><wikipedia>pl:Na Beskidzie</wikipedia></wpt><wpt lat="49.8179467" lon="19.2015401"><name>Zasolnica</name><ele>556</ele></wpt><wpt lat="49.8159899" lon="19.1447142"><name>Groniczki</name><ele>833</ele><wikidata>Q18425047</wikidata><wikipedia>pl:Groniczek (Beskid Mały)</wikipedia></wpt><wpt lat="49.7797147" lon="19.3055234"><name>Beskid</name><ele>759</ele></wpt><wpt lat="49.7831156" lon="19.259457"><name>Cisowa Grapa / Wielki Cisownik</name><ele>810</ele></wpt><wpt lat="49.8090676" lon="19.123874"><name>Gaiki</name><ele>816</ele><wikidata>Q9265277</wikidata><wikipedia>pl:Gaiki (szczyt)</wikipedia></wpt><wpt lat="49.7783107" lon="19.2851976"><name>Kocierz / Wielka Góra</name><ele>879</ele></wpt><wpt lat="49.8008099" lon="19.2073034"><name>Kozubnik</name><ele>551</ele></wpt><wpt lat="49.7593599" lon="19.5121619"><name>Żurawnica</name><ele>727</ele></wpt><wpt lat="49.7620141" lon="19.5295398"><name>Gołuszkowa Góra</name><ele>715</ele></wpt><wpt lat="49.7955186" lon="19.4451739"><name>Groń Jana Pawła II</name><ele>890</ele><wikidata>Q9281045</wikidata><wikipedia>pl:Groń Jana Pawła II</wikipedia></wpt><wpt lat="50.4069643" lon="16.7964571"><name>Ptasznik</name><ele>717.9</ele></wpt><wpt lat="50.4238889" lon="16.8102778"><name>Kopacz</name><ele>554.2</ele></wpt><wpt lat="50.4194444" lon="16.8133333"><name>Maślak</name><ele>558</ele></wpt><wpt lat="50.4310195" lon="16.8350799"><name>Kościelny Las</name><ele>478</ele></wpt><wpt lat="50.4105133" lon="16.8634125"><name>Javornik</name><ele>764</ele></wpt><wpt lat="50.4130987" lon="16.8330474"><name>Kopciowa</name><ele>605</ele></wpt><wpt lat="50.4326605" lon="16.8754184"><name>Pasieka</name><ele>537</ele></wpt><wpt lat="50.4" lon="16.8088889"><name>Wilcza Góra</name><ele>711</ele><wikidata>Q9374316</wikidata><wikipedia>pl:Wilcza Góra (Góry Złote)</wikipedia></wpt><wpt lat="50.4377785" lon="16.8505937"><name>Haniak</name><ele>540</ele></wpt><wpt lat="50.3363534" lon="19.2349647"><name>Wzgórze Gołonoskie</name><ele>337</ele></wpt><wpt lat="50.2123668" lon="19.1279077"><name>Traugott</name><ele>330</ele></wpt><wpt lat="50.1526435" lon="19.0864765"><name>Góra Kamienna</name><ele>267</ele></wpt><wpt lat="49.6071208" lon="18.9105033"><name>Kubalonka</name><ele>830</ele></wpt><wpt lat="49.2590286" lon="20.0765188"><name>Gęsia Szyja</name><ele>1489</ele><wikidata>Q9284045</wikidata><wikipedia>pl:Gęsia Szyja</wikipedia></wpt><wpt lat="49.2365796" lon="19.7666788"><name>Grześ / Lúčna</name><ele>1653</ele><wikidata>Q11702821</wikidata><wikipedia>pl:Grześ</wikipedia></wpt><wpt lat="49.4196402" lon="20.1816469"><name>Czerwona Skałka</name><ele>789.4</ele></wpt><wpt lat="50.3190619" lon="19.2597226"><name>Góra Jasińska</name><ele>311</ele></wpt><wpt lat="50.3234184" lon="19.2721984"><name>Góra Bordowicza</name><ele>327</ele></wpt><wpt lat="50.3167332" lon="19.2971396"><name>Srocza Góra</name><ele>330</ele></wpt><wpt lat="50.7373035" lon="19.4322331"><name>Sowia Góra</name><ele>280.8</ele></wpt><wpt lat="50.7205878" lon="19.4615963"><name>Góra Okrąglica</name><ele>290</ele></wpt><wpt lat="50.7154469" lon="19.4576319"><name>Góra Podazie</name><ele>302</ele></wpt><wpt lat="50.7225684" lon="19.4512917"><name>Góra Gościrodka</name><ele>300</ele></wpt><wpt lat="50.7193669" lon="19.4212103"><name>Jelenia Góra</name><ele>306</ele></wpt><wpt lat="50.7220693" lon="19.3839547"><name>Góra Kadzielnia</name><ele>344</ele></wpt><wpt lat="49.6273279" lon="19.6550805"><name>Okrąglica</name><ele>1239</ele><wikidata>Q11797122</wikidata><wikipedia>pl:Okrąglica (Beskid Żywiecki)</wikipedia></wpt><wpt lat="49.6284566" lon="19.6437478"><name>Jasna Góra</name><ele>1239</ele><wikidata>Q18425731</wikidata><wikipedia>pl:Jasna Góra (Pasmo Policy)</wikipedia></wpt><wpt lat="49.6234504" lon="19.619744"><name>Polica</name><ele>1369</ele></wpt><wpt lat="49.6260119" lon="19.6388012"><name>Złota Grapa</name><ele>1247</ele><wikidata>Q19401731</wikidata><wikipedia>pl:Złota Grapa</wikipedia></wpt><wpt lat="49.452562" lon="20.5956289"><name>Mała Radziejowa</name><ele>1207</ele></wpt><wpt lat="49.1903952" lon="22.1504063"><name>Buniów</name><ele>817</ele></wpt><wpt lat="49.1029722" lon="22.4408333"><name>Rabia skala</name><ele>1199</ele><wikidata>Q9310198</wikidata><wikipedia>pl:Riaba Skała</wikipedia></wpt><wpt lat="52.0301125" lon="14.8262125"><name>Przypłoć</name><ele>60.6</ele></wpt><wpt lat="52.093954" lon="14.7292673"><name>Biala Gora</name><ele>40.6</ele></wpt><wpt lat="50.3347984" lon="19.2413221"><name>Wzgórze Gołonoskie</name><ele>334</ele></wpt><wpt lat="49.5227999" lon="20.7074962"><name>Nad Garbem</name><ele>781</ele></wpt><wpt lat="50.4107231" lon="19.070166"><name>Srocza Góra</name><ele>362</ele></wpt><wpt lat="50.4124843" lon="16.3651329"><name>Wysoczka</name><ele>650.7</ele></wpt><wpt lat="50.4013667" lon="16.3705339"><name>Wroniawa</name><ele>662</ele></wpt><wpt lat="50.413132" lon="16.3735733"><name>Mała Wysoczka</name><ele>617.8</ele></wpt><wpt lat="49.4968779" lon="20.7129327"><name>Makowica</name><ele>948</ele></wpt><wpt lat="50.3894444" lon="16.3972222"><name>Ptasia Góra</name><ele>745.3</ele><wikidata>Q11830767</wikidata><wikipedia>pl:Ptasia Góra (Góry Bystrzyckie)</wikipedia></wpt><wpt lat="50.3810935" lon="16.386992"><name>Ołtarz</name><ele>705</ele></wpt><wpt lat="50.3774359" lon="16.3881015"><name>Stołek</name><ele>761</ele></wpt><wpt lat="50.4027778" lon="16.3966667"><name>Góra Dziadka</name><ele>555.3</ele></wpt><wpt lat="50.3911111" lon="16.3727778"><name>Gajowa</name><ele>700</ele></wpt><wpt lat="50.3660539" lon="16.3747319"><name>Sołtysia Kopa</name><ele>896</ele></wpt><wpt lat="50.411905" lon="16.3833037"><name>Góra Ceglana</name><ele>606.6</ele></wpt><wpt lat="50.4091667" lon="16.3922222"><name>Karwiec</name><ele>611</ele></wpt><wpt lat="49.4133713" lon="18.9686845"><name>Veľká Rača</name><ele>1236</ele><wikidata>Q571753</wikidata><wikipedia>sk:Veľká Rača</wikipedia></wpt><wpt lat="49.402083" lon="18.971181"><name>Malá Rača</name><ele>1153</ele><wikidata>Q11772092</wikidata><wikipedia>cs:Malá Rača</wikipedia></wpt><wpt lat="50.3748396" lon="16.3771744"><name>Przyjacielska Kopa</name><ele>736.7</ele></wpt><wpt lat="49.1708142" lon="20.0275891"><name>Hrubý vrch</name><ele>2428</ele><wikidata>Q9294477</wikidata><wikipedia>sk:Hrubý vrch (Vysoké Tatry)</wikipedia></wpt><wpt lat="49.1707875" lon="20.0413021"><name>Štrbský štít</name><ele>2381</ele><wikidata>Q9351169</wikidata><wikipedia>sk:Štrbský štít</wikipedia></wpt><wpt lat="49.1687041" lon="20.02769"><name>Furkotský štít</name><ele>2403</ele><wikidata>Q1004388</wikidata><wikipedia>sk:Furkotský štít</wikipedia></wpt><wpt lat="49.215958" lon="19.7584624"><name>Rakoń / Rákoň</name><ele>1879</ele><wikidata>Q9303722</wikidata><wikipedia>pl:Rakoń</wikipedia></wpt><wpt lat="50.8455256" lon="15.4916239"><name>Wysoki Kamień</name><ele>1058</ele><wikidata>Q527915</wikidata><wikipedia>pl:Wysoki Kamień</wikipedia></wpt><wpt lat="50.824596" lon="15.6510684"><name>Rudzianki</name><ele>591</ele></wpt><wpt lat="50.838024" lon="15.9354411"><name>Wołek</name><ele>877.6</ele></wpt><wpt lat="49.8088314" lon="19.8885851"><name>Sularzówka</name><ele>625</ele></wpt><wpt lat="49.5747842" lon="20.9128553"><name>Jaworze</name><ele>882</ele></wpt><wpt lat="50.2915065" lon="17.4578389"><name>Olszak</name><ele>453</ele></wpt><wpt lat="50.2893877" lon="17.4341378"><name>Krzyżówka</name><ele>427</ele></wpt><wpt lat="50.2567057" lon="17.4286006"><name>Biskupia Kopa/Biskupská Kupa</name><ele>890</ele><wikidata>Q494558</wikidata><wikipedia>cs:Biskupská kupa</wikipedia></wpt><wpt lat="54.1752108" lon="15.6849724"><name>Krzywa Góra</name><ele>33</ele></wpt><wpt lat="52.3228938" lon="20.7447648"><name>Zdrojowa Góra</name><ele>101.8</ele></wpt><wpt lat="49.6383383" lon="20.9511952"><name>Matulanka</name><ele>473</ele></wpt><wpt lat="49.4865659" lon="20.7688375"><name>Góra Sokołowska</name><ele>1028</ele><wikidata>Q9339226</wikidata><wikipedia>pl:Sokołowska Góra</wikipedia></wpt><wpt lat="49.4551119" lon="20.7834247"><name>Parchowatka</name><ele>1005</ele></wpt><wpt lat="49.4697655" lon="20.8052589"><name>Wargulszańskie Góry</name><ele>1035</ele><wikidata>Q86662073</wikidata><wikipedia>pl:Wargulszańskie Góry</wikipedia></wpt><wpt lat="49.4405559" lon="20.7935445"><name>Kiczera</name><ele>840</ele></wpt><wpt lat="49.45886" lon="20.80098"><name>Laziska</name><ele>941</ele></wpt><wpt lat="49.4847822" lon="20.7945564"><name>Wierch nad Kamieniem</name><ele>1084</ele></wpt><wpt lat="49.5419245" lon="20.8869722"><name>Czerszla</name><ele>877</ele></wpt><wpt lat="49.4801297" lon="20.7621346"><name>Pisana Hala</name><ele>1044</ele><wikidata>Q9285145</wikidata><wikipedia>pl:Hala Pisana (Beskid Sądecki)</wikipedia></wpt><wpt lat="49.5035445" lon="20.9214214"><name>Jaworynki</name><ele>756</ele></wpt><wpt lat="49.5011808" lon="21.0123914"><name>Chlopski Wierch</name><ele>660</ele></wpt><wpt lat="49.428339" lon="20.9688059"><name>Jasiennik</name><ele>765</ele></wpt><wpt lat="49.4182963" lon="20.9418954"><name>Góra Krzyżowa</name><ele>812</ele><wikidata>Q11750045</wikidata><wikipedia>pl:Krzyżowa (Beskid Sądecki)</wikipedia></wpt><wpt lat="49.3969109" lon="20.9262011"><name>Szczawna Góra</name><ele>781</ele></wpt><wpt lat="49.645069" lon="20.6890803"><name>Góra Zabełecka</name><ele>320</ele></wpt><wpt lat="50.8208812" lon="15.4610304"><name>Babiniec</name><ele>997.8</ele><wikidata>Q9163768</wikidata><wikipedia>pl:Babiniec (Karkonosze)</wikipedia></wpt><wpt lat="50.8116667" lon="15.4841667"><name>Przedział</name><ele>1068.1</ele><wikidata>Q11828425</wikidata><wikipedia>pl:Przedział (Karkonosze)</wikipedia></wpt><wpt lat="52.3052381" lon="20.8388118"><name>Góra Ojca</name><ele>100.6</ele></wpt><wpt lat="53.8862672" lon="14.2011315"><name>Golm</name><ele>69.3</ele></wpt><wpt lat="53.7376134" lon="14.2600063"><name>Beckersberg</name><ele>13.8</ele></wpt><wpt lat="50.6636832" lon="16.5099579"><name>Kozia Równia</name><ele>929.5</ele><wikidata>Q11744574</wikidata><wikipedia>pl:Kozia Równia</wikipedia></wpt><wpt lat="49.5335835" lon="19.2977695"><name>Munczolik (Szczawina)</name><ele>1356</ele></wpt><wpt lat="49.5445928" lon="19.3355312"><name>Solisko</name><ele>1194</ele></wpt><wpt lat="49.557201" lon="19.3036437"><name>Uszczawne Wyżne</name><ele>1145</ele><wikidata>Q9367485</wikidata><wikipedia>pl:Uszczawne Wyżne</wikipedia></wpt><wpt lat="49.5508211" lon="19.301468"><name>Buczynka</name><ele>1205</ele></wpt><wpt lat="49.5354016" lon="19.2813944"><name>Palenica</name><ele>1338</ele></wpt><wpt lat="49.5312289" lon="19.260587"><name>Trzy Kopce</name><ele>1216</ele><wikidata>Q9362318</wikidata><wikipedia>pl:Trzy Kopce (Beskid Żywiecki)</wikipedia></wpt><wpt lat="49.5922705" lon="19.410064"><name>Jaworzyna</name><ele>1047</ele><wikidata>Q11723461</wikidata><wikipedia>pl:Jaworzyna (1047 m)</wikipedia></wpt><wpt lat="49.5743515" lon="19.3960745"><name>Beskid Krzyżowski / Beskyd</name><ele>923</ele><wikidata>Q9169572</wikidata><wikipedia>pl:Beskid Krzyżowski</wikipedia></wpt><wpt lat="49.5655437" lon="19.3714766"><name>Westka / Studienky</name><ele>954</ele></wpt><wpt lat="49.2764311" lon="19.989459"><name>Nosal</name><ele>1205.7</ele><wikidata>Q17619460</wikidata><wikipedia>pl:Nosal (Tatry)</wikipedia></wpt><wpt lat="49.2679448" lon="19.9908771"><name>Nieborak</name><ele>1213</ele><wikidata>Q11791291</wikidata><wikipedia>pl:Nieborak</wikipedia></wpt><wpt lat="49.2010232" lon="20.0473711"><name>Miedziane</name><ele>2233</ele><wikidata>Q11780117</wikidata><wikipedia>pl:Miedziane</wikipedia></wpt><wpt lat="49.2074941" lon="20.0590427"><name>Opalony Wierch</name><ele>2115</ele><wikidata>Q11798451</wikidata><wikipedia>pl:Opalony Wierch</wikipedia></wpt><wpt lat="49.1992073" lon="20.0333875"><name>Vyšný kostúr / Wyżni Kostur</name><ele>2083</ele><wikidata>Q769933</wikidata><wikipedia>pl:Wyżni Kostur</wikipedia></wpt><wpt lat="49.2193198" lon="20.0210642"><name>Zmarzłe Czuby</name><ele>2189</ele><wikidata>Q9391490</wikidata><wikipedia>pl:Zmarzłe Czuby</wikipedia></wpt><wpt lat="49.2073905" lon="20.0485055"><name>Niedźwiedź</name><ele>1812</ele><wikidata>Q16582130</wikidata><wikipedia>pl:Niedźwiedź (Miedziane)</wikipedia></wpt><wpt lat="49.2194016" lon="20.0246528"><name>Zamarła Turnia</name><ele>2179</ele><wikidata>Q9386469</wikidata><wikipedia>pl:Zamarła Turnia</wikipedia></wpt><wpt lat="49.2196086" lon="20.0132486"><name>Niebieska Turnia</name><ele>2262</ele><wikidata>Q11791252</wikidata><wikipedia>pl:Niebieska Turnia</wikipedia></wpt><wpt lat="49.2188958" lon="20.0266912"><name>Kozie Czuby</name><ele>2263</ele><wikidata>Q11744588</wikidata><wikipedia>pl:Kozie Czuby</wikipedia></wpt><wpt lat="49.2202917" lon="20.0338276"><name>Buczynowa Strażnica</name><ele>2242</ele><wikidata>Q9181257</wikidata><wikipedia>pl:Buczynowa Strażnica</wikipedia></wpt><wpt lat="49.2199065" lon="20.0154082"><name>Zawratowa Turnia</name><ele>2247</ele><wikidata>Q9387610</wikidata><wikipedia>pl:Zawratowa Turnia</wikipedia></wpt><wpt lat="49.8020308" lon="19.297484"><name>Mała Bukowa</name><ele>690</ele></wpt><wpt lat="49.7782998" lon="19.2618275"><name>Wielka Cisowa Grapa</name><ele>853</ele></wpt><wpt lat="50.8323637" lon="16.7328671"><name>Świerczyna</name><ele>414.2</ele></wpt><wpt lat="50.8283704" lon="16.7021715"><name>Czernica</name><ele>487</ele></wpt><wpt lat="50.8178563" lon="16.68688"><name>Świerkowa</name><ele>380</ele></wpt><wpt lat="50.8562223" lon="16.7891928"><name>Gozdnik</name><ele>313.8</ele></wpt><wpt lat="50.8580223" lon="16.6883607"><name>Skalne</name><ele>521.6</ele></wpt><wpt lat="50.8855257" lon="16.6887598"><name>Wrzos</name><ele>250</ele></wpt><wpt lat="50.6874746" lon="16.4243273"><name>Moszna</name><ele>771.4</ele><wikidata>Q11786060</wikidata></wpt><wpt lat="50.6954192" lon="16.4102338"><name>Włodarz</name><ele>811</ele><wikidata>Q674453</wikidata></wpt><wpt lat="49.4653903" lon="20.4020709"><name>Marszałek</name><ele>829.2</ele><wikidata>Q11770513</wikidata><wikipedia>pl:Marszałek (Gorce)</wikipedia></wpt><wpt lat="49.4011349" lon="20.6427268"><name>Eliaszówka / Eliášovka</name><ele>1023</ele><wikidata>Q2026062</wikidata><wikipedia>pl:Eliaszówka (szczyt)</wikipedia></wpt><wpt lat="49.1527994" lon="22.3430837"><name>Duży Skaleniec</name><ele>983</ele></wpt><wpt lat="50.2727001" lon="17.4588036"><name>Zamkowa Góra</name><ele>571</ele></wpt><wpt lat="53.9533483" lon="14.4858883"><name>Gosań</name><ele>93.4</ele><wikidata>Q9274707</wikidata><wikipedia>pl:Gosań (wzgórze)</wikipedia></wpt><wpt lat="50.7077653" lon="16.3288652"><name>Jedliniec</name><ele>735.1</ele></wpt><wpt lat="53.8965181" lon="14.4422007"><name>Wyżnica</name><ele>61</ele><wikidata>Q9380685</wikidata><wikipedia>pl:Wyżnica (Wolin)</wikipedia></wpt><wpt lat="49.7684163" lon="19.0371112"><name>Kozia Góra</name><ele>683</ele></wpt><wpt lat="49.7873931" lon="19.092011"><name>Łysa Góra</name><ele>660</ele></wpt><wpt lat="49.7524566" lon="18.9996172"><name>Szyndzielnia</name><ele>1028</ele><wikidata>Q1754435</wikidata><wikipedia>pl:Szyndzielnia</wikipedia></wpt><wpt lat="49.559165" lon="20.046291"><name>Groniki</name><ele>1027</ele><wikidata>Q16978667</wikidata><wikipedia>pl:Groniki_(Gorce)</wikipedia></wpt><wpt lat="49.5651317" lon="20.2530125"><name>Gorc</name><ele>1228</ele><wikidata>Q11708059</wikidata><wikipedia>pl:Gorc</wikipedia></wpt><wpt lat="49.7126161" lon="20.0989496"><name>Lubogoszcz</name><ele>968</ele><wikidata>Q11763116</wikidata><wikipedia>pl:Lubogoszcz (Beskid Wyspowy)</wikipedia></wpt><wpt lat="49.489321" lon="20.3389281"><name>Lubań</name><ele>1211</ele></wpt><wpt lat="49.4493044" lon="20.6041221"><name>Radziejowa</name><ele>1266</ele></wpt><wpt lat="49.7866529" lon="19.1325777"><name>Sokołówka</name><ele>858</ele><wikidata>Q9339239</wikidata><wikipedia>pl:Sokołówka (szczyt)</wikipedia></wpt><wpt lat="49.7539116" lon="19.1616697"><name>Przysłop</name><ele>629</ele></wpt><wpt lat="49.7685893" lon="19.1710684"><name>Rogacz</name><ele>898</ele></wpt><wpt lat="49.7770576" lon="19.1296756"><name>Magurka Wilkowicka</name><ele>909</ele><wikidata>Q11766282</wikidata><wikipedia>pl:Magurka Wilkowicka</wikipedia></wpt><wpt lat="49.7958516" lon="19.1286891"><name>Przegibek</name><ele>685</ele><wikipedia>pl:Przegibek (Beskid Mały)</wikipedia></wpt><wpt lat="49.7774855" lon="19.1117089"><name>Rogacz</name><ele>828</ele></wpt><wpt lat="50.7370246" lon="16.3062802"><name>Mały Wołowiec</name><ele>718</ele><wikidata>Q11772605</wikidata><wikipedia>pl:Mały Wołowiec</wikipedia></wpt><wpt lat="50.9973355" lon="16.1291809"><name>Radogost</name><ele>395</ele></wpt><wpt lat="49.5477659" lon="20.157368"><name>Jaworzyna Kamienicka</name><ele>1288</ele><wikidata>Q11723470</wikidata><wikipedia>pl:Jaworzyna Kamienicka</wikipedia></wpt><wpt lat="49.5396829" lon="20.1491473"><name>Kiczora</name><ele>1282</ele><wikidata>Q31791534</wikidata><wikipedia>pl:Kiczora (Gorce)</wikipedia></wpt><wpt lat="49.5502425" lon="20.2042312"><name>Przysłop</name><ele>1187</ele></wpt><wpt lat="49.5794466" lon="20.1160411"><name>Turbaczyk</name><ele>1078</ele><wikidata>Q31791507</wikidata><wikipedia>pl:Turbaczyk</wikipedia></wpt><wpt lat="51.0563889" lon="16.0752778"><name>Górzec</name><ele>442</ele><wikidata>Q9283913</wikidata><wikipedia>pl:Górzec (Pogórze Kaczawskie)</wikipedia></wpt><wpt lat="49.552254" lon="20.1152861"><name>Czoło Turbacza</name><ele>1259</ele><wikidata>Q9199582</wikidata><wikipedia>pl:Czoło Turbacza</wikipedia></wpt><wpt lat="49.4412122" lon="20.873847"><name>Runek</name><ele>1080</ele></wpt><wpt lat="50.8084793" lon="15.9000581"><name>Skalnik</name><ele>944</ele><wikidata>Q9337576</wikidata><wikipedia>pl:Skalnik (Rudawy Janowickie)</wikipedia></wpt><wpt lat="49.3805361" lon="20.9871225"><name>Bradowiec</name><ele>770</ele></wpt><wpt lat="49.7939809" lon="18.9427384"><name>Goruszka</name><ele>411</ele><wikidata>Q9274618</wikidata><wikipedia>pl:Goruszka</wikipedia></wpt><wpt lat="49.6553199" lon="20.2766736"><name>Mogielica</name><ele>1171</ele><wikidata>Q11784602</wikidata><wikipedia>pl:Mogielica</wikipedia></wpt><wpt lat="50.2411111" lon="16.7686111"><name>Lesieniec</name><ele>868</ele><wikidata>Q11754810</wikidata><wikipedia>pl:Lesieniec (góra)</wikipedia></wpt><wpt lat="50.2466667" lon="16.8038889"><name>Jaworowa Kopa</name><ele>1138</ele><wikidata>Q11723426</wikidata><wikipedia>pl:Jaworowa Kopa (Masyw Śnieżnika)</wikipedia></wpt><wpt lat="50.6335536" lon="16.5584173"><name>Popielak</name><ele>856</ele><wikidata>Q11823894</wikidata><wikipedia>pl:Popielak (góra)</wikipedia></wpt><wpt lat="49.5621995" lon="22.1995981"><name>Parkowa</name><ele>364</ele><wikidata>Q11811627</wikidata><wikipedia>pl:Park miejski im. Adama Mickiewicza w Sanoku</wikipedia></wpt><wpt lat="49.7407431" lon="19.1879494"><name>Łysy Groń (Przyszop)</name><ele>601</ele></wpt><wpt lat="49.5165315" lon="20.7357587"><name>Ostra</name><ele>834</ele><wikidata>Q11800657</wikidata><wikipedia>pl:Ostra (Pasmo Jaworzyny)</wikipedia></wpt><wpt lat="49.7392183" lon="19.2277729"><name>Stary Groń</name><ele>550</ele></wpt><wpt lat="52.3458817" lon="14.5951504"><name>Ruiny Wieży Kleista</name><ele>60</ele><wikidata>Q9373783</wikidata><wikipedia>pl:Wieża Kleista w Słubicach</wikipedia></wpt><wpt lat="50.0702292" lon="20.068073"><name>Kopiec Wandy</name><ele>238</ele><wikidata>Q421819</wikidata><wikipedia>pl:Kopiec Wandy</wikipedia></wpt><wpt lat="50.4730703" lon="16.5516266"><name>Czeskie Wzgórze</name><ele>426.6</ele></wpt><wpt lat="50.5186111" lon="16.5436111"><name>Chmielnik</name><ele>413</ele></wpt><wpt lat="50.4990858" lon="16.5010865"><name>Leszczynka</name><ele>415</ele></wpt><wpt lat="50.4992895" lon="16.5410334"><name>Sobkowa</name><ele>352</ele></wpt><wpt lat="50.5024819" lon="16.5570457"><name>Grodziszcze</name><ele>396</ele></wpt><wpt lat="50.4335135" lon="16.4912992"><name>Cygan</name><ele>468.2</ele></wpt><wpt lat="50.5025" lon="16.4122222"><name>Farna Góra</name><ele>397.2</ele></wpt><wpt lat="50.5058333" lon="16.4880556"><name>Ciernina</name><ele>463</ele></wpt><wpt lat="50.5313889" lon="16.5111111"><name>Pustółka</name><ele>425</ele></wpt><wpt lat="50.5404139" lon="16.4461826"><name>Nowa Kopa</name><ele>548</ele></wpt><wpt lat="50.4794444" lon="16.4708333"><name>Bogatka</name><ele>437</ele></wpt><wpt lat="50.4916667" lon="16.4694444"><name>Wzgórze Kwarantanny</name><ele>425.1</ele></wpt><wpt lat="50.5230556" lon="16.5294444"><name>Wesoła</name><ele>491.5</ele></wpt><wpt lat="50.5208333" lon="16.4655556"><name>Ścinawka</name><ele>536</ele></wpt><wpt lat="50.5063889" lon="16.4775"><name>Mała Kopka</name><ele>435</ele></wpt><wpt lat="50.5429232" lon="16.4343334"><name>Gardzień</name><ele>555.5</ele></wpt><wpt lat="50.4831838" lon="16.3090831"><name>Ostra Góra</name><ele>710</ele></wpt><wpt lat="50.5341553" lon="16.5411342"><name>Wilkowiec</name><ele>598</ele></wpt><wpt lat="50.5308112" lon="16.4375619"><name>Kamionka</name><ele>497</ele></wpt><wpt lat="50.545" lon="16.4919444"><name>Chłopska Góra</name><ele>463.3</ele></wpt><wpt lat="50.5141667" lon="16.4469444"><name>Ptak</name><ele>453</ele></wpt><wpt lat="50.4819444" lon="16.4627778"><name>Horeb</name><ele>429.1</ele></wpt><wpt lat="50.5369444" lon="16.4086111"><name>Przepiórka</name><ele>490.6</ele></wpt><wpt lat="50.4836462" lon="16.3336199"><name>Szczeliniec Mały</name><ele>870</ele><wikidata>Q9351027</wikidata><wikipedia>pl:Szczeliniec Mały</wikipedia></wpt><wpt lat="50.4476948" lon="16.2828043"><name>Młyński Kamień</name><ele>625</ele></wpt><wpt lat="50.4527087" lon="16.3825752"><name>Zbój</name><ele>757</ele></wpt><wpt lat="50.4261531" lon="16.3254888"><name>Średnia Kopa</name><ele>746.6</ele></wpt><wpt lat="50.4425" lon="16.2944444"><name>Opalona</name><ele>680</ele></wpt><wpt lat="50.4913782" lon="16.3433639"><name>Bykowa</name><ele>768</ele></wpt><wpt lat="50.4491667" lon="16.3047222"><name>Wapienek</name><ele>645</ele></wpt><wpt lat="50.4376993" lon="16.343691"><name>Czech</name><ele>702.2</ele></wpt><wpt lat="50.442228" lon="16.3006244"><name>Krucza Kopa</name><ele>722.7</ele></wpt><wpt lat="50.4619444" lon="16.295"><name>Lelkowa Góra</name><ele>736.4</ele></wpt><wpt lat="50.447651" lon="16.2914017"><name>Smogulec</name><ele>690</ele></wpt><wpt lat="50.4035904" lon="16.350793"><name>Grzywacz</name><ele>732.6</ele></wpt><wpt lat="50.4144444" lon="16.3816667"><name>Grodowa</name><ele>597.4</ele></wpt><wpt lat="50.4781846" lon="16.3275268"><name>Pustelnik</name><ele>790</ele></wpt><wpt lat="50.4584154" lon="16.3335759"><name>Rogowa Kopa</name><ele>793.9</ele></wpt><wpt lat="50.4721581" lon="16.3216014"><name>Skalniak</name><ele>915</ele><wikidata>Q9337568</wikidata><wikipedia>pl:Skalniak (szczyt)</wikipedia></wpt><wpt lat="50.4538889" lon="16.2883333"><name>Rudna Góra</name><ele>633</ele></wpt><wpt lat="50.4015416" lon="16.3463155"><name>Gomola</name><ele>733</ele><wikidata>Q9274421</wikidata><wikipedia>pl:Gomoła</wikipedia></wpt><wpt lat="50.4537086" lon="16.352812"><name>Kopa Śmierci</name><ele>825</ele></wpt><wpt lat="50.5113051" lon="16.3926573"><name>Kowalik</name><ele>453.5</ele></wpt><wpt lat="50.4134037" lon="16.33312"><name>Grodczyn</name><ele>803</ele></wpt><wpt lat="50.4547222" lon="16.4058333"><name>Dziczy Grzbiet</name><ele>739</ele></wpt><wpt lat="50.4274443" lon="16.3370085"><name>Lech</name><ele>739</ele></wpt><wpt lat="50.442468" lon="16.288283"><name>Skowron</name><ele>640</ele></wpt><wpt lat="50.4388923" lon="16.320027"><name>Cisowa Góra</name><ele>723.2</ele></wpt><wpt lat="50.4304409" lon="16.3690562"><name>Rus</name><ele>597.7</ele></wpt><wpt lat="50.4574453" lon="16.3049295"><name>Czarna Kopa</name><ele>741.6</ele></wpt><wpt lat="50.490139" lon="16.4148282"><name>Mnich</name><ele>521.6</ele></wpt><wpt lat="50.5972218" lon="16.6006727"><name>Malinowa</name><ele>838.8</ele><wikidata>Q31792495</wikidata></wpt><wpt lat="50.6366326" lon="16.5463517"><name>Żmij</name><ele>887</ele><wikidata>Q9397501</wikidata><wikipedia>pl:Żmij (góra)</wikipedia></wpt><wpt lat="50.6566667" lon="16.4927778"><name>Grabina</name><ele>945.5</ele></wpt><wpt lat="50.6486802" lon="16.5429434"><name>Słoneczna</name><ele>949</ele><wikidata>Q18435168</wikidata></wpt><wpt lat="50.677273" lon="16.4196413"><name>Osówka</name><ele>715.7</ele><wikidata>Q11800947</wikidata></wpt><wpt lat="50.4519963" lon="16.6755285"><name>Owcza Góra</name><ele>361</ele></wpt><wpt lat="50.4765996" lon="16.7303368"><name>Myszak</name><ele>611</ele></wpt><wpt lat="50.4955556" lon="16.7488889"><name>Kalwaria</name><ele>575</ele></wpt><wpt lat="49.2349301" lon="19.8105055"><name>Mały Kopieniec</name><ele>1329</ele><wikidata>Q11772550</wikidata><wikipedia>pl:Mały Kopieniec (Dolina Chochołowska)</wikipedia></wpt><wpt lat="49.2050038" lon="19.7785794"><name>Deravá / Łopata</name><ele>1958</ele><wikidata>Q9394322</wikidata><wikipedia>pl:Łopata (Tatry)</wikipedia></wpt><wpt lat="49.2126161" lon="19.8075106"><name>Czubik</name><ele>1846</ele><wikidata>Q11692335</wikidata><wikipedia>pl:Czubik</wikipedia></wpt><wpt lat="49.2191036" lon="19.8037262"><name>Trzydniowiański Wierch</name><ele>1758</ele><wikidata>Q9362376</wikidata><wikipedia>pl:Trzydniowiański Wierch</wikipedia></wpt><wpt lat="49.1994775" lon="19.8198351"><name>Klin / Starorobociański Wierch</name><ele>2176</ele><wikidata>Q3544114</wikidata><wikipedia>en:Klin (mountain)</wikipedia></wpt><wpt lat="49.2057057" lon="19.8074261"><name>Končistá / Kończysty Wierch</name><ele>2002</ele><wikidata>Q11744818</wikidata><wikipedia>pl:Kończysty Wierch</wikipedia></wpt><wpt lat="49.2393485" lon="19.8099993"><name>Wielki Kopieniec</name><ele>1257</ele><wikidata>Q9372946</wikidata><wikipedia>pl:Wielki Kopieniec (Dolina Chochołowska)</wikipedia></wpt><wpt lat="49.2016538" lon="19.8295433"><name>Sivá veža / Siwy Zwornik</name><ele>1965</ele><wikidata>Q9337357</wikidata><wikipedia>pl:Siwy Zwornik</wikipedia></wpt><wpt lat="49.2190459" lon="19.8329494"><name>Ornak</name><ele>1854</ele><wikidata>Q11799298</wikidata><wikipedia>pl:Ornak (szczyt)</wikipedia></wpt><wpt lat="49.2313255" lon="19.966186"><name>Pośredni Goryczkowy Wierch / Prostredný Goričkový vrch</name><ele>1874</ele><wikidata>Q11826357</wikidata><wikipedia>pl:Pośredni Goryczkowy Wierch</wikipedia></wpt><wpt lat="49.2559336" lon="19.9643544"><name>Kalacka Turnia</name><ele>1383</ele></wpt><wpt lat="49.2393278" lon="19.9772688"><name>Sucha Czuba</name><ele>1696</ele><wikidata>Q9347753</wikidata><wikipedia>pl:Sucha Czuba</wikipedia></wpt><wpt lat="49.2526854" lon="19.9399941"><name>Długi Giewont</name><ele>1867</ele><wikidata>Q9249477</wikidata><wikipedia>pl:Długi Giewont</wikipedia></wpt><wpt lat="49.2323666" lon="19.958014"><name>Goričkova kopa / Goryczkowa Czuba</name><ele>1913</ele><wikidata>Q9274624</wikidata><wikipedia>pl:Goryczkowa Czuba</wikipedia></wpt><wpt lat="49.2510855" lon="19.9278557"><name>Mały Giewont</name><ele>1728</ele><wikidata>Q11772538</wikidata><wikipedia>pl:Mały Giewont</wikipedia></wpt><wpt lat="49.2509538" lon="19.9341016"><name>Wielki Giewont</name><ele>1894.5</ele><wikidata>Q9372923</wikidata><wikipedia>pl:Wielki Giewont</wikipedia></wpt><wpt lat="49.2543448" lon="19.9534982"><name>Kalacka Kopa</name><ele>1592</ele><wikidata>Q11733425</wikidata><wikipedia>pl:Kalacka Kopa</wikipedia></wpt><wpt lat="49.2337524" lon="19.9404808"><name>Suchy Wierch Kondracki / Suchá kopa</name><ele>1893</ele><wikidata>Q9347852</wikidata><wikipedia>pl:Suchy Wierch Kondracki</wikipedia></wpt><wpt lat="49.2581952" lon="19.9424719"><name>Suchy Wierch</name><ele>1539</ele><wikidata>Q9347844</wikidata><wikipedia>pl:Suchy Wierch (Giewont)</wikipedia></wpt><wpt lat="49.2515836" lon="19.9743548"><name>Myślenickie Turnie</name><ele>1360</ele><wikidata>Q11787708</wikidata><wikipedia>pl:Myślenickie Turnie</wikipedia></wpt><wpt lat="49.2375708" lon="19.879397"><name>Upłazkowa Turnia</name><ele>1650</ele><wikidata>Q9366959</wikidata><wikipedia>pl:Upłazkowa Turnia</wikipedia></wpt><wpt lat="49.2133184" lon="19.9023695"><name>Poľská Tomanová / Tomanowy Wierch Polski</name><ele>1977</ele><wikidata>Q9359134</wikidata><wikipedia>pl:Tomanowy Wierch Polski</wikipedia></wpt><wpt lat="49.2397429" lon="19.8887549"><name>Upłaziańska Kopa</name><ele>1796</ele><wikidata>Q9366951</wikidata><wikipedia>pl:Upłaziańska Kopa</wikipedia></wpt><wpt lat="49.2043926" lon="19.8811306"><name>Smreczyński Wierch / Smrečiny</name><ele>2066</ele><wikidata>Q9338770</wikidata><wikipedia>pl:Smreczyński Wierch</wikipedia></wpt><wpt lat="49.2361404" lon="19.8826726"><name>Wysoka Turnia</name><ele>1643</ele><wikidata>Q9380223</wikidata><wikipedia>pl:Wysoka Turnia</wikipedia></wpt><wpt lat="49.256453" lon="19.9173211"><name>Grzybowiec</name><ele>1417</ele><wikidata>Q9282295</wikidata><wikipedia>pl:Grzybowiec (Tatry)</wikipedia></wpt><wpt lat="49.2346987" lon="19.9003404"><name>Twarda Kopa</name><ele>2026</ele><wikidata>Q9363138</wikidata><wikipedia>pl:Twarda Kopa</wikipedia></wpt><wpt lat="49.2164943" lon="19.9019289"><name>Suchy Wierch Tomanowy / Suchý vrch</name><ele>1860</ele><wikidata>Q9347857</wikidata><wikipedia>pl:Suchy Wierch Tomanowy</wikipedia></wpt><wpt lat="49.2257281" lon="19.9040309"><name>Tomanowe Stoły</name><ele>1956</ele><wikidata>Q9359125</wikidata><wikipedia>pl:Tomanowe Stoły</wikipedia></wpt><wpt lat="49.1957464" lon="19.8695462"><name>Kamienista / Veľká Kamenistá</name><ele>2121</ele><wikidata>Q2855198</wikidata><wikipedia>pl:Kamienista</wikipedia></wpt><wpt lat="49.2384495" lon="19.8945944"><name>Chuda Turnia</name><ele>1858</ele><wikidata>Q11690397</wikidata><wikipedia>pl:Chuda Turnia</wikipedia></wpt><wpt lat="49.2316278" lon="19.9095349"><name>Kresanica / Krzesanica</name><ele>2122</ele><wikidata>Q2582708</wikidata><wikipedia>pl:Krzesanica</wikipedia></wpt><wpt lat="49.2621551" lon="19.9154426"><name>Łysanki</name><ele>1446.7</ele><wikidata>Q9394922</wikidata><wikipedia>pl:Łysanki</wikipedia></wpt><wpt lat="49.2135399" lon="19.7815741"><name>Czerwony Wierch</name><ele>1766</ele><wikidata>Q9198932</wikidata><wikipedia>pl:Czerwony Wierch Chochołowski</wikipedia></wpt><wpt lat="49.2069618" lon="19.8349199"><name>Kotłowa Czubka</name><ele>1840</ele><wikidata>Q11744439</wikidata><wikipedia>pl:Kotłowa Czuba</wikipedia></wpt><wpt lat="49.2451977" lon="19.8006705"><name>Hrubas</name><ele>1499</ele><wikidata>Q9294470</wikidata><wikipedia>pl:Hrubas</wikipedia></wpt><wpt lat="49.2453567" lon="19.7784434"><name>Jamborowy Wierch</name><ele>1565</ele><wikidata>Q11716735</wikidata><wikipedia>pl:Jamborowy Wierch</wikipedia></wpt><wpt lat="49.2130519" lon="19.8358079"><name>Zadni Ornak</name><ele>1867</ele><wikidata>Q9385704</wikidata><wikipedia>pl:Zadni Ornak</wikipedia></wpt><wpt lat="49.2123315" lon="19.7749217"><name>Kopa</name><ele>1596</ele></wpt><wpt lat="49.2448959" lon="19.806503"><name>Wielkie Turnie</name><ele>1350</ele></wpt><wpt lat="49.240814" lon="19.8355407"><name>Kominiarski Wierch</name><ele>1829</ele><wikidata>Q11741584</wikidata><wikipedia>pl:Kominiarski Wierch</wikipedia></wpt><wpt lat="50.555" lon="16.6366667"><name>Grodnia</name><ele>638</ele></wpt><wpt lat="50.5436111" lon="16.6688889"><name>Wilczak</name><ele>633.4</ele></wpt><wpt lat="50.5360342" lon="16.6881872"><name>Radosz</name><ele>590</ele><wikidata>Q31792624</wikidata></wpt><wpt lat="50.4139098" lon="18.8688871"><name>Góra Cipiorg</name><ele>340</ele></wpt><wpt lat="51.4588889" lon="16.2236111"><name>Grzybno</name><ele>203</ele></wpt><wpt lat="53.9396264" lon="14.4660298"><name>Kawcza Góra</name><ele>61</ele><wikidata>Q11737553</wikidata><wikipedia>pl:Kawcza</wikipedia></wpt><wpt lat="51.4710937" lon="16.2460127"><name>Kropelka</name><ele>180</ele></wpt><wpt lat="49.0175828" lon="22.8887903"><name>Chaszczowata</name><ele>859</ele></wpt><wpt lat="51.4825" lon="16.15"><name>Ostrzyca</name><ele>223.2</ele></wpt><wpt lat="49.2644142" lon="19.9509951"><name>Igła</name><ele>1207</ele></wpt><wpt lat="53.9523249" lon="14.4990365"><name>Grzywacz</name><ele>115.9</ele><wikidata>Q11702851</wikidata><wikipedia>pl:Grzywacz (Wolin)</wikipedia></wpt><wpt lat="49.1222127" lon="22.5857375"><name>Wyżniański Wierch</name><ele>913</ele><wikidata>Q9380683</wikidata><wikipedia>pl:Wyżniański Wierch</wikipedia></wpt><wpt lat="49.1854213" lon="22.6421585"><name>Średni Wierch</name><ele>899</ele></wpt><wpt lat="49.1581511" lon="22.5514039"><name>Hasiakowa Skała</name><ele>1228</ele><wikidata>Q9286689</wikidata><wikipedia>pl:Hasiakowa Skała</wikipedia></wpt><wpt lat="49.1677571" lon="22.5280648"><name>Roh</name><ele>1255</ele><wikidata>Q9311893</wikidata><wikipedia>pl:Roh (Bieszczady)</wikipedia></wpt><wpt lat="49.1780458" lon="22.5046462"><name>Szare Berdo</name><ele>1108</ele><wikidata>Q9350840</wikidata><wikipedia>pl:Szare Berdo</wikipedia></wpt><wpt lat="49.0747779" lon="22.7263688"><name>Tarnica</name><ele>1346.2</ele><wikidata>Q577655</wikidata><wikipedia>pl:Tarnica</wikipedia></wpt><wpt lat="49.0797358" lon="22.7246861"><name>Tarniczka</name><ele>1315</ele></wpt><wpt lat="49.2123136" lon="22.7258173"><name>Łysania</name><ele>669</ele></wpt><wpt lat="49.1730973" lon="22.5331123"><name>Średni Wierch</name><ele>1085</ele></wpt><wpt lat="49.112763" lon="22.4416291"><name>Paportna</name><ele>1198</ele><wikidata>Q11802910</wikidata><wikipedia>pl:Paportna</wikipedia></wpt><wpt lat="49.3002246" lon="22.4519937"><name>Tołsta</name><ele>749</ele><wikidata>Q9360618</wikidata><wikipedia>pl:Tołsta</wikipedia></wpt><wpt lat="49.6055787" lon="18.8231084"><name>Stożek Wielki</name><ele>979</ele><wikidata>Q3505001</wikidata><wikipedia>pl:Stożek Wielki (Beskid Śląski)</wikipedia></wpt><wpt lat="51.1257589" lon="17.086387"><name>Wzgórze Kilimandżaro</name><ele>134</ele><wikidata>Q9381070</wikidata><wikipedia>pl:Wzgórze Kilimandżaro</wikipedia></wpt><wpt lat="49.2537718" lon="22.409318"><name>Bukowinka</name><ele>740</ele></wpt><wpt lat="49.2349662" lon="22.3342904"><name>Daniowa</name><ele>873</ele></wpt><wpt lat="49.2210515" lon="22.3223846"><name>Horb</name><ele>709</ele></wpt><wpt lat="49.2327489" lon="22.3469197"><name>Horodek</name><ele>889</ele></wpt><wpt lat="49.2467363" lon="22.3670561"><name>Jamy</name><ele>822</ele></wpt><wpt lat="49.2356671" lon="22.3115765"><name>Jasiennik</name><ele>854</ele></wpt><wpt lat="49.2593366" lon="22.2265769"><name>Jaworne</name><ele>992</ele><wikidata>Q11723410</wikidata><wikipedia>pl:Jaworne</wikipedia></wpt><wpt lat="49.2046773" lon="22.3519017"><name>Mochnaczka</name><ele>777</ele></wpt><wpt lat="49.2488847" lon="22.4280847"><name>Pereszliba</name><ele>767</ele></wpt><wpt lat="49.3253673" lon="22.4064726"><name>Czaków</name><ele>588</ele></wpt><wpt lat="49.3027395" lon="22.3509079"><name>Lipowiec</name><ele>743</ele></wpt><wpt lat="49.3260289" lon="22.5795302"><name>Moklik</name><ele>675</ele><wikidata>Q11784790</wikidata><wikipedia>pl:Moklik</wikipedia></wpt><wpt lat="49.2832683" lon="22.487551"><name>Szczob</name><ele>753</ele></wpt><wpt lat="49.3930757" lon="22.3761165"><name>Wisinka</name><ele>540</ele></wpt><wpt lat="50.1882539" lon="16.8082897"><name>Goworek / Hraniční skály</name><ele>1320</ele><wikidata>Q9274912</wikidata><wikipedia>pl:Goworek (Masyw Śnieżnika)</wikipedia></wpt><wpt lat="50.8697854" lon="15.8698772"><name>Sokolik</name><ele>643.6</ele><wikidata>Q9339205</wikidata><wikipedia>pl:Sokolik</wikipedia></wpt><wpt lat="52.479996" lon="17.0111017"><name>Dziewicza Góra</name><ele>144.9</ele></wpt><wpt lat="49.6535245" lon="19.9919222"><name>Luboń Wielki</name><ele>1022</ele><wikidata>Q11763182</wikidata><wikipedia>pl:Luboń Wielki</wikipedia></wpt><wpt lat="49.5776407" lon="22.239776"><name>Orli Kamień</name><ele>514</ele></wpt><wpt lat="49.6777952" lon="18.954555"><name>Grabowa</name><ele>907</ele><wikidata>Q9275232</wikidata><wikipedia>pl:Grabowa (Beskid Śląski)</wikipedia></wpt><wpt lat="50.1234116" lon="19.6169315"><name>Góra Buczyna</name><ele>330</ele><wikidata>Q9181248</wikidata><wikipedia>pl:Buczyna (Garb Tenczyński)</wikipedia></wpt><wpt lat="50.6990159" lon="19.3631675"><name>Dupka</name><ele>370.8</ele><wikidata>Q7509621</wikidata><wikipedia>pl:Siedlec (gmina Janów)</wikipedia></wpt><wpt lat="50.625661" lon="19.3891971"><name>Parchowotka</name><ele>407</ele></wpt><wpt lat="51.0736428" lon="15.1725238"><name>Ostra</name><ele>353</ele></wpt><wpt lat="50.8236111" lon="15.4025"><name>Krogulec</name><ele>988.1</ele><wikidata>Q11748257</wikidata><wikipedia>pl:Krogulec (Góry Izerskie)</wikipedia></wpt><wpt lat="50.8238889" lon="15.4158333"><name>Cicha Równia</name><ele>1001.5</ele><wikidata>Q9192288</wikidata><wikipedia>pl:Cicha Równia</wikipedia></wpt><wpt lat="50.8489449" lon="15.4520108"><name>Zwalisko</name><ele>1046.4</ele><wikidata>Q9392193</wikidata><wikipedia>pl:Zwalisko</wikipedia></wpt><wpt lat="50.8726481" lon="15.5680836"><name>Ciemniak (mgielnik)</name><ele>705</ele></wpt><wpt lat="50.9044444" lon="15.4186111"><name>Dłużec</name><ele>867.2</ele></wpt><wpt lat="50.8702778" lon="15.5094444"><name>Gaik</name><ele>781</ele></wpt><wpt lat="50.8711111" lon="15.4988889"><name>Jastrzębiec</name><ele>792.4</ele></wpt><wpt lat="50.8838889" lon="15.4419444"><name>Kamienica</name><ele>972.8</ele><wikidata>Q11733980</wikidata><wikipedia>pl:Kamienica (góra)</wikipedia></wpt><wpt lat="50.8745358" lon="15.5171139"><name>Kopań</name><ele>757</ele></wpt><wpt lat="50.8905556" lon="15.4625"><name>Kowalówka</name><ele>889.3</ele><wikidata>Q11744479</wikidata><wikipedia>pl:Kowalówka (Góry Izerskie)</wikipedia></wpt><wpt lat="50.8715904" lon="15.53939"><name>Kozia Szyja</name><ele>747.9</ele></wpt><wpt lat="50.866674" lon="15.4667084"><name>Piaszczysta</name><ele>785</ele></wpt><wpt lat="50.8955556" lon="15.5536111"><name>Popiel</name><ele>532</ele></wpt><wpt lat="50.8863889" lon="15.5155556"><name>Smolnik</name><ele>623.9</ele></wpt><wpt lat="50.8905556" lon="15.5419444"><name>Trzciniak</name><ele>559</ele></wpt><wpt lat="50.8891667" lon="15.5561111"><name>Wiśniowa</name><ele>550</ele></wpt><wpt lat="50.8877778" lon="15.5733333"><name>Zaroślak</name><ele>552</ele></wpt><wpt lat="50.9023897" lon="15.507032"><name>Świerczek</name><ele>595</ele></wpt><wpt lat="50.8663889" lon="15.4788889"><name>Świerkowiec</name><ele>741</ele></wpt><wpt lat="50.9155556" lon="15.4072222"><name>Blizbor</name><ele>712</ele></wpt><wpt lat="50.9234118" lon="15.4174917"><name>Granaty</name><ele>580</ele></wpt><wpt lat="50.9090924" lon="15.3674865"><name>Sępia Góra</name><ele>828.5</ele></wpt><wpt lat="50.9155556" lon="15.3811111"><name>Zamkowa</name><ele>712</ele></wpt><wpt lat="50.9225838" lon="15.4068136"><name>Łyszczyk</name><ele>588.6</ele></wpt><wpt lat="50.3822333" lon="20.2346931"><name>Góra Cybowa</name><ele>302</ele></wpt><wpt lat="51.4536734" lon="16.2966622"><name>Kargul</name><ele>182</ele></wpt><wpt lat="51.4507159" lon="16.3191048"><name>Pawlak</name><ele>171</ele></wpt><wpt lat="50.4514913" lon="19.5533474"><name>Góra Janowskiego (Zamkowa)</name><ele>516</ele><wikidata>Q9283422</wikidata><wikipedia>pl:Góra Janowskiego</wikipedia></wpt><wpt lat="51.4801709" lon="16.2491652"><name>Wenus</name><ele>175</ele></wpt><wpt lat="51.3542693" lon="16.1106771"><name>Świbnik</name><ele>178</ele></wpt><wpt lat="51.3975721" lon="16.0971214"><name>Góra Wędrowca</name><ele>203</ele></wpt><wpt lat="51.3214719" lon="16.1450217"><name>Piotruś</name><ele>172</ele></wpt><wpt lat="51.3943516" lon="16.103518"><name>Dębiak</name><ele>192.6</ele></wpt><wpt lat="51.4672222" lon="16.2511111"><name>Dłużec</name><ele>182</ele></wpt><wpt lat="51.4722597" lon="16.2627693"><name>Sośnisko</name><ele>180.8</ele></wpt><wpt lat="51.4509725" lon="16.2667036"><name>Młyńska</name><ele>170</ele></wpt><wpt lat="51.4672222" lon="16.2833333"><name>Dłusko</name><ele>183</ele></wpt><wpt lat="51.4670815" lon="16.2905344"><name>Sylwunia</name><ele>190</ele></wpt><wpt lat="51.438363" lon="16.2239257"><name>Śnieżka</name><ele>174</ele></wpt><wpt lat="51.4456888" lon="16.2816982"><name>Łysica</name><ele>164</ele></wpt><wpt lat="49.4439105" lon="20.6469971"><name>Trześniowy Groń</name><ele>1001</ele><wikidata>Q11791534</wikidata><wikipedia>pl:Niemcowa (szczyt)</wikipedia></wpt><wpt lat="49.4399307" lon="20.61034"><name>Wielki Rogacz</name><ele>1182</ele><wikidata>Q9372966</wikidata><wikipedia>pl:Wielki Rogacz</wikipedia></wpt><wpt lat="51.7085277" lon="19.4420407"><name>Rudzka Góra</name><ele>230</ele><wikidata>Q9323887</wikidata><wikipedia>pl:Rudzka Góra</wikipedia></wpt><wpt lat="50.1756108" lon="16.7298679"><name>Pątnik</name><ele>694.8</ele><wikidata>Q11832389</wikidata><wikipedia>pl:Pątnik (góra)</wikipedia></wpt><wpt lat="50.1666667" lon="16.7366667"><name>Niedźwiedź</name><ele>702</ele><wikidata>Q11791472</wikidata><wikipedia>pl:Niedźwiedź (góra)</wikipedia></wpt><wpt lat="50.1763889" lon="16.74"><name>Nowak</name><ele>700.3</ele><wikidata>Q11793541</wikidata><wikipedia>pl:Nowak (góra)</wikipedia></wpt><wpt lat="50.1725" lon="16.7636111"><name>Kamienny Garb</name><ele>806.4</ele><wikidata>Q11734418</wikidata><wikipedia>pl:Kamienny Garb</wikipedia></wpt><wpt lat="50.1425" lon="16.6269444"><name>Bochniak</name><ele>712.5</ele><wikidata>Q11688380</wikidata><wikipedia>pl:Bochniak</wikipedia></wpt><wpt lat="51.4683333" lon="16.1847222"><name>Czartowiec</name><ele>202</ele></wpt><wpt lat="51.5398879" lon="16.1767476"><name>Krzyżowa Góra</name><ele>157.3</ele></wpt><wpt lat="51.477068" lon="16.12527"><name>Zwierzyniec</name><ele>222</ele></wpt><wpt lat="51.5107855" lon="16.4555172"><name>Wzgórze Wilhelminy</name><ele>131</ele></wpt><wpt lat="51.5288889" lon="16.4388889"><name>Chobieńska Górka</name><ele>123</ele></wpt><wpt lat="51.53" lon="16.3886111"><name>Kocie Górki</name><ele>205.3</ele></wpt><wpt lat="51.5397697" lon="16.4163824"><name>Wądołki</name><ele>155.7</ele></wpt><wpt lat="51.5425" lon="16.2163889"><name>Krzydłowickie Wzgórze</name><ele>127</ele></wpt><wpt lat="51.5569659" lon="16.4392311"><name>Chobieńskie Wzgórza</name><ele>134.6</ele></wpt><wpt lat="51.5858333" lon="16.1005556"><name>Krąglak</name><ele>161.1</ele></wpt><wpt lat="51.5880556" lon="16.0913889"><name>Leszczynka</name><ele>175</ele></wpt><wpt lat="51.5986111" lon="16.0575"><name>Górka Jerzmanowska</name><ele>229.9</ele></wpt><wpt lat="51.4735844" lon="16.3452323"><name>Łysa Góra</name><ele>131.6</ele></wpt><wpt lat="51.4147222" lon="16.1088889"><name>Sienna</name><ele>185.8</ele></wpt><wpt lat="51.2861111" lon="16.3011111"><name>Brodowa Góra</name><ele>126.6</ele></wpt><wpt lat="51.3588889" lon="16.3961111"><name>Skowrończe</name><ele>124.4</ele></wpt><wpt lat="51.320679" lon="16.3025562"><name>Łysoń</name><ele>145.5</ele></wpt><wpt lat="51.3605556" lon="16.3486111"><name>Machaczki</name><ele>129</ele></wpt><wpt lat="51.3541459" lon="16.3435353"><name>Góra Popiełuszki</name><ele>126</ele></wpt><wpt lat="51.3132173" lon="16.217914"><name>Sosenka</name><ele>153</ele></wpt><wpt lat="51.3075" lon="16.2005556"><name>Żwirowiec</name><ele>155</ele></wpt><wpt lat="51.3988397" lon="16.3568101"><name>Piaseczna</name><ele>106</ele></wpt><wpt lat="51.3277778" lon="16.1033333"><name>Głogowiec</name><ele>166.1</ele></wpt><wpt lat="51.3387345" lon="16.2939361"><name>Wzgórze Miłości</name><ele>133</ele></wpt><wpt lat="51.3005556" lon="16.3130556"><name>Stróża</name><ele>141.3</ele></wpt><wpt lat="51.34" lon="16.3869444"><name>Młynica</name><ele>125.8</ele></wpt><wpt lat="51.3405556" lon="16.0402778"><name>Poręby</name><ele>180</ele></wpt><wpt lat="51.3504139" lon="16.0708804"><name>Wrzosy</name><ele>181.2</ele></wpt><wpt lat="51.3539208" lon="16.2074752"><name>Żytnik</name><ele>156.5</ele></wpt><wpt lat="51.2927778" lon="16.285"><name>Łysa Góra</name><ele>133</ele></wpt><wpt lat="51.312804" lon="16.2644288"><name>Łysina</name><ele>147</ele></wpt><wpt lat="49.7801531" lon="18.96659"><name>Palenica</name><ele>688</ele></wpt><wpt lat="49.7695697" lon="18.9562953"><name>Wysokie</name><ele>756</ele></wpt><wpt lat="49.7747067" lon="18.9978783"><name>Cyberniok</name><ele>731</ele></wpt><wpt lat="49.6766389" lon="19.0125471"><name>Małe Skrzyczne</name><ele>1211</ele><wikidata>Q11772197</wikidata><wikipedia>pl:Małe Skrzyczne</wikipedia></wpt><wpt lat="50.3362953" lon="19.5493647"><name>Czubatka</name><ele>382</ele></wpt><wpt lat="49.2350007" lon="20.0371931"><name>Mała Kopka</name><ele>1793</ele></wpt><wpt lat="49.2298431" lon="20.0312513"><name>Pańszczycka Turnia</name><ele>2105</ele><wikidata>Q11815291</wikidata><wikipedia>pl:Pańszczycka Turnia</wikipedia></wpt><wpt lat="49.2280739" lon="20.0334973"><name>Skrajna Pańszczycka Czuba</name><ele>2155</ele><wikidata>Q24947606</wikidata><wikipedia>pl:Skrajna Pańszczycka Czuba</wikipedia></wpt><wpt lat="49.2336634" lon="20.0394364"><name>Wielka Kopka</name><ele>1856</ele><wikidata>Q31791256</wikidata><wikipedia>ceb:Wielka Kopka</wikipedia></wpt><wpt lat="49.2289552" lon="20.0327326"><name>Wierch pod Fajki</name><ele>2135</ele><wikidata>Q9373224</wikidata><wikipedia>pl:Wierch pod Fajki</wikipedia></wpt>