<?xml version="1.0" encoding="utf-8"?><gpx xmlns="http://www.topografix.com/GPX/1/1"><wpt lat="50.2310664" lon="16.5876391"><name>Kościół filialny pw. Świętego Sebastiana</name><ele></ele></wpt><wpt lat="52.2348127" lon="20.9747972"><name>Unnamed church 1</name><ele></ele></wpt><wpt lat="52.0888692" lon="20.8450588"><name>Unnamed church 2</name><ele></ele></wpt><wpt lat="53.0435295" lon="19.8676022"><name>Unnamed church 3</name><ele></ele></wpt><wpt lat="50.4367555" lon="17.7667996"><name>Kościół filialny Niepokalanego Serca Maryi</name><ele></ele></wpt><wpt lat="49.6265071" lon="20.6919432"><name>Kościół Ducha Świętego w Nowym Sączu</name><ele></ele><wikidata>Q11745019</wikidata><wikipedia>pl:Kościół Ducha Świętego w Nowym Sączu</wikipedia></wpt><wpt lat="50.9986207" lon="17.5132299"><name>Kościół pw. Najświętszej Maryi Panny Królowej Aniołów</name><ele></ele></wpt><wpt lat="54.1355017" lon="20.5870943"><name>Church St. Andrzej Bobola</name><ele></ele></wpt><wpt lat="52.9170929" lon="23.1579188"><name>Cerkiew pw. Podwyższenia Krzyża Świętego</name><ele></ele><wikidata>Q9187003</wikidata><wikipedia>pl:Cerkiew Podwyższenia Krzyża Pańskiego w Kożanach</wikipedia></wpt><wpt lat="54.2103559" lon="18.8464522"><name>Unnamed church 4</name><ele></ele></wpt><wpt lat="54.2570122" lon="18.9314139"><name>Unnamed church 5</name><ele></ele></wpt><wpt lat="54.285407" lon="18.7709394"><name>Unnamed church 6</name><ele></ele></wpt><wpt lat="50.2864308" lon="19.0590675"><name>Unnamed church 7</name><ele></ele></wpt><wpt lat="52.1775499" lon="21.19262"><name>Kościół pw. Niepokalanego Poczęcia N.M.Panny</name><ele></ele></wpt><wpt lat="51.7298578" lon="15.8265943"><name>Parafia pw. Św. Hieronima</name><ele></ele></wpt><wpt lat="51.1617769" lon="17.8192922"><name>Kościół Wszystkich Świętych</name><ele></ele></wpt><wpt lat="50.319886" lon="19.1136267"><name>Nawiedzenia NMP - Sanktuarium Polskiej Golgoty Wschodu</name><ele></ele></wpt><wpt lat="50.7236991" lon="16.3476995"><name>Kościół pw. ewangelicki</name><ele></ele></wpt><wpt lat="49.8496138" lon="21.0472755"><name>Willa o.o. Redemptorystów</name><ele></ele></wpt><wpt lat="52.9365367" lon="20.5498509"><name>Kościół pw. św. Stanisława BM</name><ele></ele></wpt><wpt lat="50.6684063" lon="17.2173973"><name>Kościół filialny pw. św. Wawrzyńca</name><ele></ele></wpt><wpt lat="53.024033" lon="16.2339207"><name>Unnamed church 8</name><ele></ele></wpt><wpt lat="53.9916928" lon="15.7647416"><name>Kościół pw. św. Kazimierza w Karwinie</name><ele></ele></wpt><wpt lat="51.6784204" lon="16.7295744"><name>Kościół filialny pw. Matki Boskiej Częstochowskiej</name><ele></ele></wpt><wpt lat="53.2980721" lon="15.906152"><name>MB Królowej Korony Polski</name><ele></ele></wpt><wpt lat="52.5628489" lon="23.2568659"><name>Cerkiew pw. Swiętego Mikołaja Cudotwórcy</name><ele></ele></wpt><wpt lat="52.5345517" lon="23.3620976"><name>Cerkiew pw. św. Barbary</name><ele></ele><wikidata>Q16535483</wikidata><wikipedia>pl:Cerkiew św. Barbary w Kuzawie</wikipedia></wpt><wpt lat="52.7493727" lon="23.4330208"><name>Kaplica- Cerkiew pod wezwaniem świętych męczenników Podlaskich i Chełmskich</name><ele></ele></wpt><wpt lat="51.1303675" lon="17.8757725"><name>Kościół Nawiedzenia NMP</name><ele></ele></wpt><wpt lat="52.6755475" lon="22.5012607"><name>Cerkiew Wniebowstąpienia Pańskiego</name><ele></ele></wpt><wpt lat="50.152817" lon="18.2516743"><name>św Józefa Robotnika</name><ele></ele></wpt><wpt lat="54.17078" lon="16.05262"><name>Unnamed church 9</name><ele></ele></wpt><wpt lat="50.6867965" lon="17.1520589"><name>Kościół pw. pomocniczy św. Antoniego</name><ele></ele></wpt><wpt lat="50.7148528" lon="16.5803499"><name>Kościół parafialny pw. św. Jakuba</name><ele></ele></wpt><wpt lat="50.7987597" lon="16.9380245"><name>Najświętszej Maryi Panny</name><ele></ele></wpt><wpt lat="51.323" lon="16.2701511"><name>Kościół pw. Trójcy Świętej</name><ele></ele></wpt><wpt lat="50.9403167" lon="16.2495577"><name>Kościół pw. św Antoniego</name><ele></ele></wpt><wpt lat="52.2468246" lon="16.2322768"><name>Unnamed church 10</name><ele></ele></wpt><wpt lat="49.8222772" lon="20.4889986"><name>Kościół pw. Narodzenia Najświętszej Marii Panny</name><ele></ele></wpt><wpt lat="53.9263744" lon="14.925201"><name>Kościół pw. Sługi Bożego Kardynała Stefana Wyszyńskiego</name><ele></ele></wpt><wpt lat="50.2697342" lon="19.1427534"><name>Unnamed church 11</name><ele></ele></wpt><wpt lat="53.1276486" lon="17.690274"><name>Kościół  pw. Zwiastowania NMP</name><ele></ele></wpt><wpt lat="53.4995123" lon="19.6729555"><name>św. Bartłomieja Apostoła</name><ele></ele></wpt><wpt lat="53.1235014" lon="17.9631317"><name>Kościół Ewangelicznych Chrześcijan</name><ele></ele></wpt><wpt lat="50.9444461" lon="16.1961661"><name>Kościół filialny św. Jakuba i św. Anny</name><ele></ele></wpt><wpt lat="51.6365733" lon="17.7287658"><name>Unnamed church 12</name><ele></ele></wpt><wpt lat="51.011659" lon="16.2901754"><name>Kościół pw. Matki Bożej Różańcowej</name><ele></ele></wpt><wpt lat="51.0103767" lon="16.2922245"><name>Kościół pw. św. Apostołów Szymona i Judy Tadeusza</name><ele></ele></wpt><wpt lat="50.8581251" lon="15.6917656"><name>Matki Bożej Miłosierdzia</name><ele></ele></wpt><wpt lat="50.1369343" lon="19.3913836"><name>Kościół Chrześcijan Baptystów "Nadzieja"</name><ele></ele></wpt><wpt lat="53.28925" lon="20.91281"><name>Dawny kościół ewangelicki</name><ele></ele></wpt><wpt lat="54.1768163" lon="15.5906971"><name>Dom Modlitwy</name><ele></ele></wpt><wpt lat="52.91663" lon="20.65713"><name>Kościół pw. Przemienienia Pańskiego i św. Stanisława</name><ele></ele></wpt><wpt lat="50.9201743" lon="16.3947765"><name>Kościół pw. Matki Bożej Królowej Polski</name><ele></ele></wpt><wpt lat="53.48422" lon="20.96308"><name>Kościół pw. Matki Boskiej Częstochowskiej</name><ele></ele></wpt><wpt lat="50.5385617" lon="19.2331286"><name>Kościół świętego Józefa</name><ele></ele></wpt><wpt lat="50.9899867" lon="16.4638427"><name>Kościół pw. świętych Piotra i Pawła</name><ele></ele></wpt><wpt lat="50.9879186" lon="16.4169088"><name>Kościół pw. Jana Chrzciciela</name><ele></ele></wpt><wpt lat="54.0477788" lon="21.1456898"><name>Unnamed church 13</name><ele></ele></wpt><wpt lat="50.4791691" lon="22.9415954"><name>Kaplica Świętej Trójcy</name><ele></ele></wpt><wpt lat="53.3151886" lon="16.611158"><name>Unnamed church 14</name><ele></ele></wpt><wpt lat="49.6747289" lon="22.8057799"><name>Костел Пресвятої Трійці</name><ele></ele></wpt><wpt lat="54.4640072" lon="17.6903018"><name>Unnamed church 15</name><ele></ele></wpt><wpt lat="54.0915704" lon="17.067496"><name>Unnamed church 16</name><ele></ele></wpt><wpt lat="54.1011647" lon="16.9884257"><name>Unnamed church 17</name><ele></ele></wpt><wpt lat="54.123423" lon="17.5295277"><name>Unnamed church 18</name><ele></ele></wpt><wpt lat="54.2933983" lon="17.1580344"><name>Unnamed church 19</name><ele></ele></wpt><wpt lat="53.4943483" lon="17.3283542"><name>Unnamed church 20</name><ele></ele></wpt><wpt lat="52.4686348" lon="16.9821632"><name>Parafia Niepokalanego Serca Najświętszej Maryi Panny</name><ele></ele><wikidata>Q11805608</wikidata><wikipedia>pl:Parafia Niepokalanego Serca Najświętszej Maryi Panny w Czerwonaku</wikipedia></wpt><wpt lat="54.0326128" lon="17.3731533"><name>Kościół pw. Świętego Marcina z Tours Biskupa i Wyznawcy</name><ele></ele></wpt><wpt lat="53.5721356" lon="17.0719268"><name>Kościół filialny św. Piotra i Pawła Apostołów</name><ele></ele></wpt><wpt lat="53.8290298" lon="21.3891186"><name>Kościół Nowoapostolski</name><ele></ele></wpt><wpt lat="53.4682505" lon="15.3337786"><name>Unnamed church 21</name><ele></ele></wpt><wpt lat="53.8113491" lon="15.4212822"><name>Unnamed church 22</name><ele></ele></wpt><wpt lat="53.4324999" lon="16.9391803"><name>Kościół filialny św. Małgorzaty</name><ele></ele></wpt><wpt lat="53.3609262" lon="16.9523004"><name>Unnamed church 23</name><ele></ele></wpt><wpt lat="54.0608534" lon="17.1603739"><name>Kościół pw. św. Stanisława Kostki</name><ele></ele></wpt><wpt lat="50.2657949" lon="19.0440796"><name>Pierwszy Zbór Chrześcijan Baptystów w Katowicach</name><ele></ele></wpt><wpt lat="53.7509553" lon="14.657009"><name>Unnamed church 24</name><ele></ele></wpt><wpt lat="53.7440318" lon="15.2721832"><name>Unnamed church 25</name><ele></ele></wpt><wpt lat="53.7671297" lon="15.1568652"><name>Unnamed church 26</name><ele></ele></wpt><wpt lat="53.304683" lon="16.8793654"><name>Unnamed church 27</name><ele></ele></wpt><wpt lat="52.5712796" lon="20.2177855"><name>Kościół pw. św. Michała Archanioła</name><ele></ele><wikidata>Q24453316</wikidata><wikipedia>pl:Parafia_św._Michała_Archanioła_w_Kucicach</wikipedia></wpt><wpt lat="49.5918925" lon="21.1174685"><name>Cerkiew Opieki Matki Bożej i Poczajowskiej Ikony Matki Bożej w Bielance</name><ele></ele></wpt><wpt lat="49.7998828" lon="19.7320023"><name>Kościół pw. Matki Bożej Wspomożenia Wiernych w Palczy</name><ele></ele></wpt><wpt lat="52.8180225" lon="14.7861948"><name>Unnamed church 28</name><ele></ele></wpt><wpt lat="53.8389496" lon="19.8815683"><name>Unnamed church 29</name><ele></ele></wpt><wpt lat="54.0837782" lon="17.4395599"><name>Unnamed church 30</name><ele></ele></wpt><wpt lat="53.846422" lon="17.3037636"><name>Unnamed church 31</name><ele></ele></wpt><wpt lat="53.6326707" lon="17.6681054"><name>Unnamed church 32</name><ele></ele></wpt><wpt lat="53.4531761" lon="17.6551752"><name>Unnamed church 33</name><ele></ele></wpt><wpt lat="53.2417715" lon="17.4853248"><name>Unnamed church 34</name><ele></ele></wpt><wpt lat="51.7592848" lon="22.7921528"><name>Kościół pw. Zmartwychwstania Pańskiego</name><ele></ele></wpt><wpt lat="51.8266845" lon="22.8732406"><name>Kościół p.w. Opieki NMP</name><ele></ele></wpt><wpt lat="54.1072025" lon="23.3448326"><name>Kościół pw. Matki Boskiej Częstochowskiej</name><ele></ele><wikidata>Q11745108</wikidata><wikipedia>pl:Kościół Matki Boskiej Częstochowskiej w Sejnach</wikipedia></wpt><wpt lat="53.2868144" lon="20.9036705"><name>Kościół pw. św. Józefa</name><ele></ele></wpt><wpt lat="52.7090793" lon="19.8908671"><name>Unnamed church 35</name><ele></ele></wpt><wpt lat="53.5655345" lon="17.8125339"><name>Unnamed church 36</name><ele></ele></wpt><wpt lat="52.4114646" lon="20.1861594"><name>Kościół pw. św. Jana Chrzciciela</name><ele></ele></wpt><wpt lat="52.0572444" lon="22.6745782"><name>Kościół pw. Matki Bożej Szkaplerznej</name><ele></ele></wpt><wpt lat="50.1541358" lon="22.1375138"><name>Unnamed church 37</name><ele></ele></wpt><wpt lat="52.4656499" lon="20.380484"><name>Kościół pw. św. Bartłomieja</name><ele></ele></wpt><wpt lat="50.2041996" lon="19.2615116"><name>Kościół Zielonoświatkowy Zbór Betel</name><ele></ele></wpt><wpt lat="54.2232419" lon="17.1517283"><name>Unnamed church 38</name><ele></ele></wpt><wpt lat="54.2007735" lon="16.6519459"><name>Unnamed church 39</name><ele></ele></wpt><wpt lat="53.7255125" lon="16.5823792"><name>Unnamed church 40</name><ele></ele></wpt><wpt lat="50.199425" lon="19.1283266"><name>Sala Królestwa Świadków Jehowy</name><ele></ele></wpt><wpt lat="49.6161089" lon="20.7146677"><name>Sanktuarium św. Rity</name><ele></ele></wpt><wpt lat="53.8614363" lon="19.7828813"><name>Unnamed church 41</name><ele></ele></wpt><wpt lat="54.1891966" lon="19.1495406"><name>Unnamed church 42</name><ele></ele></wpt><wpt lat="54.2337372" lon="18.5350956"><name>Unnamed church 43</name><ele></ele></wpt><wpt lat="54.14659" lon="17.3191162"><name>Unnamed church 44</name><ele></ele></wpt><wpt lat="54.0591975" lon="17.241166"><name>Unnamed church 45</name><ele></ele></wpt><wpt lat="49.7099863" lon="22.4466305"><name>Kościół pw. Podwyższenia Krzyża Świętego</name><ele></ele></wpt><wpt lat="50.6825382" lon="16.2391771"><name>Cerkiew prawosławna św. Archanioła Michała</name><ele></ele></wpt><wpt lat="52.7501484" lon="14.7643555"><name>Unnamed church 46</name><ele></ele></wpt></gpx>