<?xml version="1.0" encoding="utf-8"?><gpx xmlns="http://www.topografix.com/GPX/1/1"><wpt lat="48.9285368" lon="16.8470656"><name>Rozhledna Kraví Hora</name><ele>266</ele></wpt><wpt lat="50.4002053" lon="12.7816720"><name>Blatenský vrch</name><ele>1045</ele><wikidata>Q677841</wikidata><wikipedia>cs:Blatenský vrch</wikipedia></wpt><wpt lat="49.2355036" lon="13.4875055"><name>Svatobor - rozhledna</name><ele>837</ele><wikidata>Q15586269</wikidata><wikipedia>cs:Svatobor (rozhledna)</wikipedia></wpt><wpt lat="49.5386195" lon="15.8425105"><name>Rosička</name><ele>649</ele><wikidata>Q12049800</wikidata><wikipedia>cs:Rosička (rozhledna)</wikipedia></wpt><wpt lat="49.0397519" lon="13.5754283"><name>Jezerní slať</name><ele>1076</ele></wpt><wpt lat="50.2189350" lon="12.8722517"><name>Rozhledna Diana</name><ele>556</ele><wikidata>Q783890</wikidata></wpt><wpt lat="50.3903416" lon="12.5070143"><name>Otto Hermann Böhm Turm</name><ele>917</ele></wpt><wpt lat="50.2786018" lon="15.7400264"><name>rozhl. Chlum u Hr. Králové</name><ele>338</ele></wpt><wpt lat="49.1174340" lon="16.4260637"><name>Vladimíra Menšíka na Hlíně</name><ele>450</ele></wpt><wpt lat="49.1828514" lon="16.5559756"><name>Kamenný vrch</name><ele>370</ele></wpt><wpt lat="50.7464967" lon="15.3659944"><name>Štěpánka</name><ele>959</ele></wpt><wpt lat="49.3890654" lon="16.7039618"><name>rozhledna Podvrší u Veselice</name><ele>590</ele><wikidata>Q1627395</wikidata><wikipedia>cs:Telekomunikační věž Podvrší u Veselice</wikipedia></wpt><wpt lat="50.2634156" lon="12.3871912"><name>U Strejců</name><ele>611</ele></wpt><wpt lat="49.1190549" lon="17.4032852"><name>rozhledna Modrá - Židoviny</name><ele>274</ele></wpt><wpt lat="49.5581735" lon="16.2790575"><name>Karasín</name><ele>700</ele></wpt><wpt lat="49.8081185" lon="12.4660688"><name>Grenzlandturm</name><ele>796</ele></wpt><wpt lat="48.8600613" lon="17.3656444"><name>Travičná</name><ele>377</ele></wpt><wpt lat="50.8964120" lon="14.2596093"><name>Aussichtsturm Großer Winterberg</name><ele>551</ele></wpt><wpt lat="48.8176557" lon="17.4273828"><name>rozhledna Žalostiná</name><ele>623</ele></wpt><wpt lat="50.8321254" lon="14.4543942"><name>Studenec</name><ele>735</ele><wikidata>Q1273417</wikidata><wikipedia>cs:Studenec (Lužické hory)</wikipedia></wpt><wpt lat="49.9162942" lon="15.7806490"><name>Rozhledna Bára</name><ele>344</ele><wikidata>Q1390657</wikidata><wikipedia>cs:Rozhledna Bára</wikipedia></wpt><wpt lat="49.3729885" lon="16.3715298"><name>Křivoš</name><ele>464</ele></wpt><wpt lat="48.9007384" lon="17.3134249"><name>Bílá věž</name><ele>178</ele></wpt><wpt lat="49.1339416" lon="18.0383799"><name>Rozhledna U Cyrila Bureše</name><ele>644</ele></wpt><wpt lat="48.9805703" lon="16.8194641"><name>rozhledna Nedánov</name><ele>367</ele></wpt><wpt lat="49.9601747" lon="16.3739513"><name>Stříbrná krasavice</name><ele>562</ele><wikidata>Q12057085</wikidata><wikipedia>cs:Andrlův Chlum (rozhledna)</wikipedia></wpt><wpt lat="50.7117922" lon="15.2329544"><name>Rozhledna Černá Studnice</name><ele>867</ele></wpt><wpt lat="50.0922569" lon="16.2469248"><name>Rozhledna Vrbice</name><ele>443</ele></wpt><wpt lat="48.7266610" lon="17.0322941"><name>Vtáčia pozorovateľňa</name><ele>157</ele></wpt><wpt lat="49.3987524" lon="18.3960397"><name>Rozhledna Súkenická</name><ele>952</ele><wikidata>Q12058078</wikidata><wikipedia>cs:Súkenická</wikipedia></wpt><wpt lat="49.2277404" lon="16.1175675"><name>Rozhledna Ocmanice</name><ele>428</ele></wpt><wpt lat="50.7804758" lon="14.2711467"><name>Sokolí vrch</name><ele>501</ele></wpt><wpt lat="49.0970392" lon="16.3857073"><name>Rozhledna Alfonse Muchy</name><ele>310</ele><wikidata>Q12049948</wikidata><wikipedia>cs:Rozhledna Alfonse Muchy</wikipedia></wpt><wpt lat="48.8654900" lon="14.2832042"><name>Kleť</name><ele>1083</ele></wpt><wpt lat="49.3192629" lon="14.4290467"><name>Rozhledna Radětice</name><ele>474</ele></wpt><wpt lat="49.4513552" lon="16.5858364"><name>Malý Chlum</name><ele>489</ele><wikidata>Q12035130</wikidata><wikipedia>cs:Malý Chlum (rozhledna)</wikipedia></wpt><wpt lat="50.1137248" lon="14.1036376"><name>Kožová hora</name><ele>458</ele></wpt><wpt lat="48.9053622" lon="16.8337209"><name>Rozhledna Slunečná</name><ele>224</ele></wpt><wpt lat="49.8465178" lon="15.7840803"><name>Boiika</name><ele>528</ele></wpt><wpt lat="49.3199008" lon="16.4847000"><name>Čebínka</name><ele>431</ele></wpt><wpt lat="48.7028016" lon="13.9713446"><name>Moldaublick</name><ele>1035</ele><wikidata>Q1683872</wikidata></wpt><wpt lat="50.4170509" lon="12.6753708"><name>Aussichtsplattform</name><ele>931</ele></wpt><wpt lat="49.8912223" lon="17.5225957"><name>Rozhledna Velký Roudný</name><ele>787</ele></wpt><wpt lat="49.6257781" lon="12.8120493"><name>Rozhledna Březinka</name><ele>569</ele></wpt><wpt lat="49.0418661" lon="16.6390484"><name>Akátová věž</name><ele>351</ele></wpt><wpt lat="49.9351534" lon="12.6383402"><name>Panský Vrch</name><ele>665</ele></wpt><wpt lat="49.1902241" lon="13.5691489"><name>Sedlo</name><ele>902</ele><wikidata>Q15980424</wikidata><wikipedia>cs:Sedlo (rozhledna)</wikipedia></wpt><wpt lat="49.8677090" lon="18.2728302"><name>rozhledna Landek</name><ele>260</ele></wpt><wpt lat="48.8605329" lon="17.7029633"><name>Jelenec</name><ele>922</ele></wpt><wpt lat="49.3150647" lon="18.3349988"><name>Rozhľadňa Stratenec</name><ele>1036</ele></wpt><wpt lat="50.6287559" lon="15.0916628"><name>Arturův hrad</name><ele>381</ele></wpt><wpt lat="49.6652926" lon="12.6224256"><name>Milíře u Rozvadova</name><ele>600</ele></wpt><wpt lat="50.7132364" lon="15.1043804"><name>Rozhledna na Císařském kameni</name><ele>637</ele></wpt><wpt lat="50.5548472" lon="13.9312794"><name>Milešovka rozhledna</name><ele>818</ele></wpt><wpt lat="49.2796776" lon="16.9377106"><name>Chocholík</name><ele>367</ele></wpt><wpt lat="50.2161566" lon="16.5126642"><name>Vyhlid. vez Anensky vrch</name><ele>997</ele></wpt><wpt lat="48.7904082" lon="14.5384330"><name>Slabošovka</name><ele>619</ele></wpt><wpt lat="49.3231514" lon="15.9575339"><name>Rubačka</name><ele>586</ele></wpt><wpt lat="49.5568699" lon="16.4047440"><name>Kopaniny</name><ele>657</ele><wikidata>Q12042513</wikidata><wikipedia>cs:Olešnice (rozhledna)</wikipedia></wpt><wpt lat="49.5709986" lon="16.4555867"><name>Zelenkův kopec</name><ele>666</ele><wikidata>Q10858009</wikidata><wikipedia>cs:Zelenkův kopec</wikipedia></wpt><wpt lat="49.1382182" lon="13.6534636"><name>Klostermannova Rozhledna</name><ele>1078</ele><wikipedia>cs:Klostermannova rozhledna</wikipedia></wpt><wpt lat="48.9150991" lon="16.7842037"><name>U Obrázku</name><ele>260</ele></wpt><wpt lat="50.8330400" lon="15.2315693"><name>Na Čihadle</name><ele>974</ele></wpt><wpt lat="49.5907914" lon="16.3410776"><name>Horní les</name><ele>777</ele><wikidata>Q55842280</wikidata></wpt><wpt lat="48.9668400" lon="13.5921806"><name>Strážní věž Železné opony</name><ele>1154</ele></wpt><wpt lat="49.7814977" lon="15.8018111"><name>Zuberský kopec</name><ele>614</ele></wpt><wpt lat="49.8559982" lon="17.8682004"><name>Bezručova vyhlídka</name><ele>447</ele></wpt><wpt lat="50.0504915" lon="17.7332618"><name>Rozhledna Hanse Kudlicha</name><ele>395</ele><wikidata>Q10856844</wikidata><wikipedia>cs:Strážiště (rozhledna)</wikipedia></wpt><wpt lat="49.9960058" lon="14.1074252"><name>Rozhledna Lhotka</name><ele>465</ele></wpt><wpt lat="49.2699959" lon="17.9387752"><name>Vartovna</name><ele>647</ele></wpt><wpt lat="49.9257118" lon="16.7053789"><name>rozhledna Lázek</name><ele>716</ele></wpt><wpt lat="49.7691502" lon="14.5684050"><name>Neštětická hora</name><ele>533</ele></wpt><wpt lat="50.0584102" lon="14.0639547"><name>Vysoký vrch</name><ele>475</ele></wpt><wpt lat="50.1322453" lon="13.4955961"><name>Tobiášův vrch</name><ele>484</ele><wikidata>Q12059117</wikidata><wikipedia>cs:Tobiášův vrch (rozhledna)</wikipedia></wpt><wpt lat="48.9015638" lon="13.8367022"><name>Soumarské rašeliniště</name><ele>744</ele></wpt><wpt lat="50.4007818" lon="16.1910848"><name>Jiráskova chata</name><ele>619</ele><wikidata>Q11727229</wikidata><wikipedia>cs:Jiráskova chata</wikipedia></wpt><wpt lat="48.8638620" lon="16.7710646"><name>Rozhledna U majáku na Přítlucké hoře</name><ele>285</ele></wpt><wpt lat="49.8813239" lon="16.4256225"><name>Rozhledna Kozlovský kopec</name><ele>599</ele></wpt><wpt lat="49.5712859" lon="13.4439725"><name>Rozhledna Kožich</name><ele>582</ele></wpt><wpt lat="50.2319898" lon="17.5985017"><name>Strážnice</name><ele>486</ele></wpt><wpt lat="49.9636346" lon="15.6367330"><name>Barborka</name><ele>312</ele><wikidata>Q12049951</wikidata><wikipedia>cs:Rozhledna Barborka</wikipedia></wpt><wpt lat="49.7801692" lon="15.9797696"><name>Vojtěchovská rozhledna</name><ele>589</ele><wikidata>Q11927268</wikidata><wikipedia>cs:Vojtěchov (rozhledna)</wikipedia></wpt><wpt lat="48.6526726" lon="14.2306532"><name>Stezka korunami stromů Lipno</name><ele>904</ele></wpt><wpt lat="50.9661358" lon="14.3199971"><name>rozhledna Tanečnice</name><ele>603</ele><wikidata>Q866572</wikidata><wikipedia>de:Bismarckturm (Tanečnice)</wikipedia></wpt><wpt lat="50.2537204" lon="15.0828630"><name>rozhledna Romanka</name><ele>204</ele><wikidata>Q14806652</wikidata><wikipedia>cs:Rozhledna Romanka</wikipedia></wpt><wpt lat="49.5483972" lon="17.0370184"><name>rozhledna Čechy pod Kosířem</name><ele>279</ele></wpt><wpt lat="50.4778517" lon="13.5431439"><name>Rozhledna Maják</name><ele>298</ele><wikidata>Q15613873</wikidata><wikipedia>cs:Strupčice (rozhledna)</wikipedia></wpt><wpt lat="48.8566236" lon="16.4717749"><name>Rozhledna u Křížku</name><ele>208</ele></wpt><wpt lat="48.9534724" lon="16.7426216"><name>Rozhledna Hustopeče</name><ele>296</ele><wikidata>Q12020982</wikidata><wikipedia>cs:Hustopeče (rozhledna)</wikipedia></wpt><wpt lat="49.9897097" lon="14.7829986"><name>Rozhledna Skalka</name><ele>430</ele></wpt><wpt lat="50.7781969" lon="15.0916483"><name>Rozhledna Liberecká výšina</name><ele>550</ele></wpt><wpt lat="50.0969542" lon="17.6310069"><name>Rozhledna Ježník</name><ele>553</ele></wpt><wpt lat="49.3137521" lon="14.0663774"><name>Velký Kamýk</name><ele>515</ele></wpt><wpt lat="48.8594498" lon="17.5230072"><name>rozhledna Drahy</name><ele>362</ele><wikidata>Q11826644</wikidata><wikipedia>cs:Drahy (rozhledna)</wikipedia></wpt><wpt lat="50.7369220" lon="14.3084370"><name>Ploučnická vyhlídka</name><ele>255</ele></wpt><wpt lat="50.7103904" lon="14.3142918"><name>rozhledna Kohout</name><ele>583</ele></wpt><wpt lat="50.6871654" lon="14.3555541"><name>rozhledna Strážný vrch</name><ele>582</ele></wpt><wpt lat="50.6494299" lon="14.2767509"><name>Víťova vyhlídka</name><ele>616</ele></wpt><wpt lat="48.8473258" lon="14.0200755"><name>Knížecí stolec</name><ele>1237</ele></wpt><wpt lat="49.4623930" lon="18.1587177"><name>Jurkovičova rozhledna</name><ele>481</ele><wikidata>Q12027263</wikidata><wikipedia>cs:Jurkovičova rozhledna</wikipedia></wpt><wpt lat="49.6470317" lon="16.5119570"><name>Rozhledna Járy Cimrmana</name><ele>479</ele></wpt><wpt lat="50.1574301" lon="16.7907712"><name>Wieża widokowa na Trójmorskim Wierchu</name><ele>1139</ele><wikidata>Q19401537</wikidata><wikipedia>pl:Wieża widokowa na Trójmorskim Wierchu</wikipedia></wpt><wpt lat="50.1542777" lon="15.8336396"><name>rozhledna Milíř</name><ele>283</ele></wpt><wpt lat="49.8028180" lon="13.3415404"><name>Krkavec</name><ele>506</ele></wpt><wpt lat="49.5641519" lon="14.3132104"><name>Rozhledna Kuníček</name><ele>556</ele><wikidata>Q12049957</wikidata><wikipedia>cs:Rozhledna Kuníček</wikipedia></wpt><wpt lat="49.0876340" lon="15.2710108"><name>rozhledna U Jakuba</name><ele>680</ele></wpt><wpt lat="50.8490529" lon="14.6470302"><name>Aussichtsturm z.Z. im Bau</name><ele>778</ele></wpt><wpt lat="49.6787052" lon="18.8045590"><name>Rozhledna Velká Čantoryje</name><ele>995</ele></wpt><wpt lat="49.5107463" lon="18.6963933"><name>Rozhledna Tetřev</name><ele>944</ele><wikidata>Q10856846</wikidata><wikipedia>cs:Tetřev (rozhledna)</wikipedia></wpt><wpt lat="50.5746074" lon="16.1241036"><name>Rozhledna na vrchu Čáp</name><ele>786</ele><wikidata>Q18193617</wikidata><wikipedia>cs:Rozhledna na vrchu Čáp</wikipedia></wpt><wpt lat="49.7858100" lon="13.5479050"><name>vojenská věž</name><ele>503</ele></wpt><wpt lat="50.3844476" lon="13.7943447"><name>Frotzelova rozhledna</name><ele>266</ele></wpt><wpt lat="49.3621167" lon="13.1563333"><name>Rozhledna Svatá Markéta</name><ele>640</ele></wpt><wpt lat="49.1698615" lon="16.6233420"><name>Komec</name><ele>198</ele></wpt><wpt lat="50.7514038" lon="15.2823560"><name>Tanvaldský Špičák</name><ele>803</ele></wpt><wpt lat="50.0379743" lon="16.7573128"><name>rozhledna Křížová hora</name><ele>728</ele></wpt><wpt lat="50.2874048" lon="17.2313619"><name>Hemberk</name><ele>677</ele></wpt><wpt lat="50.8608800" lon="14.2695594"><name>Rozhledna Janovský vrch</name><ele>348</ele></wpt><wpt lat="49.8666000" lon="12.7528079"><name>Bohušův vrch</name><ele>579</ele></wpt><wpt lat="49.8803500" lon="13.4629833"><name>Radost</name><ele>423</ele></wpt><wpt lat="49.8043309" lon="17.7731189"><name>Hradní věž</name><ele>458</ele></wpt><wpt lat="49.9949511" lon="16.4540823"><name>rozhledna Lanšperk</name><ele>453</ele></wpt><wpt lat="49.1947884" lon="18.1324127"><name>Čubův kopec</name><ele>710</ele><wikidata>Q11385387</wikidata><wikipedia>cs:Čubův kopec (rozhledna)</wikipedia></wpt><wpt lat="49.8444154" lon="18.2113067"><name>Vyhlídková věž Hošťálkovice</name><ele>241</ele></wpt><wpt lat="49.0378198" lon="17.3263983"><name>Rozhledna Floriánka</name><ele>350</ele></wpt><wpt lat="49.0251199" lon="17.8444476"><name>Na Skalce</name><ele>493</ele></wpt><wpt lat="49.0391273" lon="17.3037268"><name>rozhledna Doubí</name><ele>352</ele></wpt><wpt lat="50.6564048" lon="14.9604888"><name>Čihadlo</name><ele>450</ele></wpt><wpt lat="50.3840555" lon="13.2577554"><name>Aussichtsturm Heiliger Berg</name><ele>393</ele></wpt><wpt lat="48.9751140" lon="17.7813747"><name>Vyhlídková věž Pod Vojanskú</name><ele>414</ele></wpt><wpt lat="49.0954232" lon="14.7146389"><name>vyhlídková věž Lomnice</name><ele>435</ele></wpt><wpt lat="50.2369560" lon="12.5578906"><name>rozhledna Cibulka</name><ele>662</ele></wpt><wpt lat="49.6365690" lon="18.4841333"><name>Prašivá</name><ele>705</ele><wikidata>Q12053509</wikidata><wikipedia>cs:Seznam rozhleden v Moravskoslezském kraji</wikipedia></wpt><wpt lat="49.9620958" lon="16.5959114"><name>Marianka</name><ele>501</ele></wpt><wpt lat="49.1729537" lon="13.2084572"><name>rozhledna Špičák</name><ele>1200</ele></wpt><wpt lat="50.2616109" lon="14.7028735"><name>rozhledna Kostelní Hlavno</name><ele>218</ele></wpt><wpt lat="50.0864909" lon="17.1394282"><name>Rozhledna na Medvědí hoře</name><ele>1098</ele></wpt><wpt lat="50.1523473" lon="13.3169605"><name>rozhledna Vochlice</name><ele>451</ele></wpt><wpt lat="50.4613518" lon="16.1667530"><name>Na Signálu</name><ele>496</ele><wikidata>Q20860785</wikidata><wikipedia>cs:Rozhledna na Signálu</wikipedia></wpt><wpt lat="49.5899566" lon="18.1588974"><name>Bezručova vyhlídka</name><ele>460</ele></wpt><wpt lat="49.3659227" lon="17.8283742"><name>Rozhledna Maruška</name><ele>658</ele></wpt><wpt lat="49.7118609" lon="13.0917782"><name>Heřmanova Huť</name><ele>377</ele><wikidata>Q12019621</wikidata><wikipedia>cs:Heřmanova Huť (rozhledna)</wikipedia></wpt><wpt lat="50.6883259" lon="15.7070696"><name>rozhledna Hnědý vrch</name><ele>1207</ele><wikidata>Q12019872</wikidata><wikipedia>cs:Hnědý vrch (rozhledna)</wikipedia></wpt><wpt lat="48.9249678" lon="17.4280787"><name>Radošov</name><ele>246</ele></wpt><wpt lat="50.2488859" lon="15.9937935"><name>Libníkovická rozhledna</name><ele>282</ele></wpt><wpt lat="49.8615465" lon="15.1218096"><name>Žandov</name><ele>555</ele></wpt><wpt lat="50.6113256" lon="13.6102448"><name>Vyhlídka Czedikův gloriet</name><ele>410</ele></wpt><wpt lat="50.6975957" lon="15.0484495"><name>Rašovka</name><ele>615</ele></wpt><wpt lat="49.6491044" lon="18.2709452"><name>Rozhledna Panorama</name><ele>533</ele></wpt><wpt lat="49.9162571" lon="15.5558749"><name>Rozhledna Na Kopečku</name><ele>358</ele></wpt><wpt lat="49.7646018" lon="14.3762546"><name>Drtinova rozhledna</name><ele>496</ele></wpt><wpt lat="49.6616741" lon="17.8773210"><name>rozhledna Olšová</name><ele>471</ele></wpt><wpt lat="50.7421743" lon="15.1296955"><name>Nad Prosečí</name><ele>586</ele></wpt><wpt lat="49.4450913" lon="17.9556570"><name>Rozhledna Jarcová</name><ele>465</ele></wpt><wpt lat="50.1442699" lon="17.4508882"><name>Rozhledna Na Skalce</name><ele>760</ele></wpt><wpt lat="50.3673211" lon="12.5100234"><name>Rozhledna Bleiberg</name><ele>799</ele></wpt><wpt lat="49.4011767" lon="16.6091631"><name>Spešovská rozhledna</name><ele>369</ele></wpt><wpt lat="50.1375287" lon="12.7293437"><name>rozhledna Krudum</name><ele>836</ele></wpt><wpt lat="49.4001627" lon="14.6712332"><name>Babina</name><ele>444</ele></wpt><wpt lat="49.6530912" lon="17.2311998"><name>Ornitologická pozorovatelna</name><ele>221</ele></wpt><wpt lat="49.6438689" lon="15.3181261"><name>Zeměměřická věž Melechov</name><ele>721</ele></wpt><wpt lat="49.6184119" lon="17.6781652"><name>Pozůstatky rozhledny hraběte Walderode</name><ele>529</ele></wpt><wpt lat="49.3887467" lon="14.6431800"><name>Hýlačka</name><ele>525</ele><wikidata>Q12021223</wikidata></wpt><wpt lat="50.0268376" lon="15.2013714"><name>ROZHLEDNA /lookout tower</name><ele>225</ele></wpt><wpt lat="50.2559857" lon="13.0043940"><name>Bučina rozhledna</name><ele>573</ele></wpt><wpt lat="50.5092133" lon="15.3683818"><name>Rozhledna Tábor</name><ele>680</ele></wpt><wpt lat="49.1428858" lon="17.3521718"><name>rozhledna Salaš</name><ele>370</ele></wpt><wpt lat="49.4001069" lon="17.7654961"><name>rozhledna Kelčský Javorník</name><ele>856</ele></wpt><wpt lat="49.1591047" lon="14.9396225"><name>Rýdův kopec Děbolín</name><ele>548</ele></wpt><wpt lat="48.9753924" lon="14.4720233"><name>Bílá věž</name><ele>396</ele></wpt><wpt lat="49.4829879" lon="17.3485761"><name>Rozhledna Brodek</name><ele>212</ele></wpt><wpt lat="48.8036201" lon="17.5447662"><name>Rozhľadňa Poľana</name><ele>530</ele></wpt><wpt lat="49.8808348" lon="12.8004979"><name>Homole</name><ele>671</ele></wpt><wpt lat="49.8795029" lon="15.5863818"><name>Vyhlídka Milada na Lichnici</name><ele>504</ele></wpt><wpt lat="49.5591131" lon="14.2379108"><name>Langova rozhledna</name><ele>598</ele></wpt><wpt lat="49.1828591" lon="15.8502090"><name>Pekelný kopec</name><ele>570</ele></wpt><wpt lat="49.8544430" lon="13.8230973"><name>Třenická hora</name><ele>473</ele></wpt><wpt lat="48.8478024" lon="14.3271714"><name>Granátník</name><ele>750</ele></wpt><wpt lat="48.7301686" lon="16.7380274"><name>Barfußweg Warte</name><ele>279</ele></wpt><wpt lat="50.5283576" lon="14.7635139"><name>Vyhlídková věž</name><ele>331</ele></wpt><wpt lat="50.2039695" lon="12.8466222"><name>Rozhledna Doubská hora</name><ele>617</ele></wpt><wpt lat="49.3549455" lon="17.3666684"><name>ornitologická pozorovatelna</name><ele>195</ele></wpt><wpt lat="48.8755298" lon="15.8746723"><name>Pozorovací věž</name><ele>423</ele></wpt><wpt lat="49.2473006" lon="16.5638518"><name>Vyhlídkový posed</name><ele>278</ele></wpt><wpt lat="49.0641098" lon="13.3951135"><name>Poledník</name><ele>1308</ele><wikidata>Q20948911</wikidata><wikipedia>cs:Poledník (rozhledna)</wikipedia></wpt><wpt lat="49.3468243" lon="17.1823711"><name>Vyhlídková plošina na kopci Kozlov</name><ele>250</ele></wpt><wpt lat="50.0141500" lon="17.0131315"><name>Rozhledna Bukovka</name><ele>624</ele></wpt><wpt lat="49.3600857" lon="16.0261833"><name>Rozhledna Fajtův kopec</name><ele>552</ele></wpt><wpt lat="49.9031943" lon="18.1359438"><name>Ptačí pozorovatelna u Kozmic</name><ele>210</ele></wpt><wpt lat="49.8698238" lon="13.9580342"><name>Zvonička</name><ele>346</ele></wpt><wpt lat="50.3775422" lon="15.6388061"><name>Masarykova věž samostatnosti</name><ele>405</ele><wikidata>Q12035986</wikidata><wikipedia>cs:Masarykova věž samostatnosti (rozhledna)</wikipedia></wpt><wpt lat="49.5388897" lon="16.9716574"><name>Pozorovatelna zvěře</name><ele>425</ele></wpt><wpt lat="49.7863035" lon="16.5826376"><name>Strážný vrch</name><ele>598</ele></wpt><wpt lat="50.3558608" lon="12.8393948"><name>Plešivec</name><ele>1026</ele></wpt><wpt lat="49.9777028" lon="12.7167926"><name>Kamzík</name><ele>755</ele></wpt><wpt lat="50.6310699" lon="15.7576521"><name>Stezka korunami stromů Krkonoše</name><ele>797</ele></wpt><wpt lat="49.8108765" lon="18.0931876"><name>Posed s vyhlídkou</name><ele>376</ele></wpt><wpt lat="49.9350715" lon="18.3412958"><name>Wieża widokowa Graniczne Meandry Odry</name><ele>199</ele></wpt><wpt lat="49.6068243" lon="14.1984273"><name>Milada</name><ele>489</ele></wpt><wpt lat="49.7963381" lon="12.6122296"><name>Vysoká</name><ele>567</ele></wpt><wpt lat="49.2125428" lon="17.2867647"><name>rozhledna Lebedov</name><ele>265</ele></wpt><wpt lat="49.0785505" lon="17.4445463"><name>Jižní věž kostela</name><ele>185</ele></wpt><wpt lat="48.9205484" lon="17.0217922"><name>rozhledna Vyšicko</name><ele>266</ele></wpt><wpt lat="49.8163064" lon="17.6810306"><name>Těchanovická vyhlídka</name><ele>492</ele></wpt><wpt lat="50.0972501" lon="14.5573157"><name>Doubravka XIV.</name><ele>254</ele></wpt><wpt lat="50.9347634" lon="15.0766813"><name>Frýdlantská výšina</name><ele>406</ele></wpt><wpt lat="50.4549458" lon="15.6945704"><name>Zvičina</name><ele>670</ele></wpt><wpt lat="49.8401240" lon="16.0624740"><name>Borůvka</name><ele>471</ele></wpt><wpt lat="48.9274334" lon="16.9076574"><name>Stezka nad vinohrady</name><ele>329</ele></wpt><wpt lat="49.9933885" lon="17.6528050"><name>Rozhledna Sosnová</name><ele>509</ele></wpt><wpt lat="50.0451068" lon="15.1370137"><name>Bedřichova vyhlídka</name><ele>276</ele></wpt><wpt lat="49.0295861" lon="17.1845503"><name>Rozhledna Johanka u Hýsly</name><ele>262</ele></wpt><wpt lat="49.7285720" lon="18.4625432"><name>Rozhledna Soběšovice</name><ele>350</ele></wpt><wpt lat="50.1704321" lon="16.8989642"><name>Vyhlídková věž</name><ele>871</ele></wpt><wpt lat="50.4323417" lon="15.7893672"><name>Vyhlídka na lví výběh</name><ele>308</ele></wpt><wpt lat="49.4933817" lon="18.2679214"><name>Stezka Valaška</name><ele>1062</ele></wpt><wpt lat="48.9120531" lon="14.0128564"><name>Křišťanov</name><ele>909</ele></wpt><wpt lat="50.2441111" lon="17.1896237"><name>Obří Výhledna</name><ele>639</ele></wpt><wpt lat="49.8031948" lon="17.9841216"><name>Rozhledna Slatina</name><ele>462</ele></wpt><wpt lat="49.1230774" lon="14.1168408"><name>Vyhlídková věž Haniperk - Svobodné Hory</name><ele>646</ele></wpt><wpt lat="50.1949568" lon="16.9807512"><name>Dalimilova rozhledna</name><ele>916</ele></wpt><wpt lat="50.5306565" lon="15.3482755"><name>Vyhlídková věž na skokanském můstku</name><ele>594</ele></wpt><wpt lat="50.4866695" lon="16.2298298"><name>Turistická rozhledna Vysoká Srbská</name><ele>511</ele></wpt><wpt lat="50.5634575" lon="16.1444055"><name>Rozhledna Lenka</name><ele>641</ele></wpt><wpt lat="49.5169973" lon="16.5136511"><name>Burianova rozhledna (Milena)</name><ele>578</ele></wpt><wpt lat="48.9911755" lon="13.8174514"><name>Boubínská rozhledna</name><ele>1355</ele></wpt></gpx>