<?xml version="1.0" encoding="utf-8"?><gpx xmlns="http://www.topografix.com/GPX/1/1"><wpt lat="50.7535045" lon="6.0213031"><name>Vaalserberg</name><ele>323</ele><wikidata>Q159860</wikidata></wpt><wpt lat="50.779422" lon="2.8143783"><name>Kemmelberg</name><ele>156</ele></wpt><wpt lat="50.6784459" lon="4.4047786"><name>Butte du Lion</name><ele>171</ele></wpt><wpt lat="50.5788726" lon="6.2144858"><name>Steling</name><ele>658</ele><wikidata>Q2342048</wikidata></wpt><wpt lat="50.6181875" lon="6.2534148"><name>Hoscheit</name><ele>600</ele></wpt><wpt lat="50.8140207" lon="3.7554735"><name>Valkenberg</name><ele>98</ele><wikidata>Q2121321</wikidata></wpt><wpt lat="50.8272901" lon="3.7240242"><name>Leberg</name><ele>99</ele></wpt><wpt lat="50.4335704" lon="3.9408631"><name>Terril de l'Héribus</name><ele>137</ele></wpt><wpt lat="51.3104314" lon="4.8823799"><name>Konijnenberg</name><ele>36</ele></wpt><wpt lat="50.5187932" lon="6.0624375"><name>Baraque Michel</name><ele>674</ele><wikidata>Q321168</wikidata><wikipedia>de:Baraque Michel</wikipedia></wpt><wpt lat="50.7740143" lon="2.8049633"><name>Monteberg</name><ele>115</ele></wpt><wpt lat="50.783911" lon="2.7562931"><name>Rodeberg</name><ele>138</ele><wikidata>Q2519213</wikidata></wpt><wpt lat="50.7836859" lon="2.7537721"><name>Baneberg</name><ele>140</ele></wpt><wpt lat="50.4251548" lon="3.8195701"><name>Terril du Sept</name><ele>108</ele></wpt><wpt lat="50.3852123" lon="4.4509907"><name>Terril de Hauchies</name><ele>213</ele></wpt><wpt lat="50.8059889" lon="4.7018983"><name>Tomberg</name><ele>102.5</ele><wikidata>Q17153889</wikidata><wikipedia>nl:Tomberg (heuvel)</wikipedia></wpt><wpt lat="50.6917547" lon="3.6099778"><name>La Croisette</name><ele>133</ele></wpt><wpt lat="50.4692786" lon="4.0524966"><name>Terril d'Havré</name><ele>104</ele></wpt><wpt lat="50.4248275" lon="3.8693926"><name>Terril de la Croix</name><ele>111</ele></wpt><wpt lat="50.4336803" lon="3.8533912"><name>Terril de la Flache</name><ele>103</ele></wpt><wpt lat="50.4337345" lon="3.8321069"><name>Terril du Neuf (Sainte Désirée)</name><ele>76</ele></wpt><wpt lat="50.4319167" lon="3.8347248"><name>Terril du Douze</name><ele>91</ele></wpt><wpt lat="50.7577149" lon="3.4915904"><name>Kluisberg / Mont de l'Enclus</name><ele>141</ele></wpt><wpt lat="50.4356002" lon="4.1573579"><name>Terril Sainte-Marguerite</name><ele>136</ele></wpt><wpt lat="50.4570194" lon="4.1346065"><name>Terril du Quesnoy</name><ele>133</ele></wpt><wpt lat="50.4605525" lon="4.1576709"><name>Terril Albert 1er</name><ele>209</ele></wpt><wpt lat="50.4321546" lon="4.1727166"><name>Terril de la Caspienne</name><ele>157</ele></wpt><wpt lat="50.4206162" lon="3.8348862"><name>Terril N° 6</name><ele>116</ele></wpt><wpt lat="51.2353549" lon="4.2447732"><name>Singelberg</name><ele>8</ele></wpt><wpt lat="50.783386" lon="2.8170014"><name>Lettenberg</name><ele>90</ele></wpt><wpt lat="50.7839924" lon="2.7479065"><name>Vidaigneberg</name><ele>142</ele></wpt><wpt lat="50.7940593" lon="2.7816555"><name>Scherpenberg</name><ele>125</ele><wikidata>Q632236</wikidata></wpt><wpt lat="50.7947966" lon="2.7645768"><name>Sulferberg</name><ele>88</ele><wikidata>Q2112394</wikidata></wpt><wpt lat="50.4226875" lon="3.9012467"><name>Mont Ostène</name><ele>140</ele></wpt><wpt lat="50.4298095" lon="3.8728735"><name>Terril du Rieu du Coeur</name><ele>86</ele></wpt><wpt lat="50.5315824" lon="6.1659466"><name>Pannensterzkopf (Bovel)</name><ele>662</ele></wpt><wpt lat="50.4359716" lon="3.9029365"><name>Terril du dix-sept / du Levant</name><ele>144</ele></wpt><wpt lat="50.4366575" lon="3.8910063"><name>Terril Sainte-Henriette</name><ele>131</ele></wpt><wpt lat="50.4327733" lon="3.8941496"><name>Terril Saint-Joseph</name><ele>106</ele></wpt><wpt lat="50.4135948" lon="3.7971437"><name>Terril de l'Alliance</name><ele>102</ele></wpt><wpt lat="50.4209739" lon="3.8684124"><name>Terril de Saint-Félix</name><ele>99</ele></wpt><wpt lat="50.4174658" lon="3.872286"><name>Terril Fief de Lamberchies</name><ele>126</ele></wpt><wpt lat="50.4157825" lon="3.868974"><name>Terril</name><ele>119</ele></wpt><wpt lat="50.5017024" lon="6.0926277"><name>Signal de Botrange</name><ele>694</ele><wikipedia>fr:Signal de Botrange</wikipedia></wpt><wpt lat="50.394538" lon="4.4973569"><name>Terril du Boubier 2</name><ele>226</ele></wpt><wpt lat="50.3747161" lon="4.4385558"><name>Terril</name><ele>223</ele></wpt><wpt lat="50.98139" lon="4.830174"><name>Kouterberg</name><ele>52</ele></wpt><wpt lat="50.4151892" lon="4.4337083"><name>Terril des Piges</name><ele>188</ele></wpt><wpt lat="51.309082" lon="4.3447259"><name>Hooge Maey</name><ele>55</ele></wpt><wpt lat="50.4094516" lon="4.2963156"><name>Terril Calvaire 2</name><ele>204</ele></wpt><wpt lat="50.4120855" lon="3.9438599"><name>Terril de Ciply</name><ele>90</ele></wpt><wpt lat="50.4124774" lon="3.8269536"><name>Terril de Marcasse</name><ele>140</ele></wpt><wpt lat="50.4165971" lon="3.8276618"><name>Terril du Dix-Huit</name><ele>97</ele></wpt><wpt lat="50.4056748" lon="3.9029031"><name>Terril de l'Agrappe</name><ele>107</ele></wpt><wpt lat="50.4049619" lon="3.9249929"><name>Terril</name><ele>123</ele></wpt><wpt lat="50.4586309" lon="4.192142"><name>Terril du Chef-Lieu</name><ele>84</ele></wpt><wpt lat="50.4340842" lon="3.8773029"><name>Terril de la Grosse Cotte</name><ele>90</ele></wpt><wpt lat="50.4319957" lon="4.4055347"><name>Terril</name><ele>171</ele></wpt><wpt lat="50.4334548" lon="4.4104055"><name>Terril Belle-Vue</name><ele>204</ele></wpt><wpt lat="50.4360587" lon="4.427165"><name>Terril</name><ele>194</ele></wpt><wpt lat="50.4342576" lon="4.1110204"><name>Terril</name><ele>109</ele></wpt><wpt lat="50.6295891" lon="5.7077673"><name>Terril du Hasard (Retinne)</name><ele>355</ele></wpt><wpt lat="50.4371746" lon="3.9780637"><name>Bois Là-Haut</name><ele>108</ele></wpt><wpt lat="50.3934074" lon="3.7991057"><name>Terril Saint-Charles</name><ele>159</ele></wpt><wpt lat="50.3984937" lon="3.8073355"><name>L'Avaleresse (Terril)</name><ele>152</ele></wpt><wpt lat="50.3928656" lon="3.8180331"><name>Le Sauwartan (Terril)</name><ele>162</ele></wpt><wpt lat="51.0594727" lon="5.3299661"><name>Terril Zolder</name><ele>135</ele></wpt><wpt lat="50.7180863" lon="5.7974769"><name>Les Waides</name><ele>243</ele></wpt><wpt lat="50.7081861" lon="5.8893796"><name>Berg Clouse</name><ele>285</ele></wpt><wpt lat="50.4102465" lon="3.7720472"><name>Terril Saint Antoine Vedette</name><ele>100</ele><wikipedia>fr:Terril Saint-Antoine</wikipedia></wpt><wpt lat="50.3991853" lon="3.8446372"><name>Terril</name><ele>126</ele></wpt><wpt lat="50.3972772" lon="3.8447767"><name>Terril du Grand Bouillon d'En Bas</name><ele>145</ele></wpt><wpt lat="50.4141431" lon="3.8404422"><name>Terril du Pachy</name><ele>113</ele></wpt><wpt lat="51.0604557" lon="4.6725104"><name>Beerzelberg</name><ele>51.6</ele></wpt><wpt lat="51.0010644" lon="4.7627228"><name>Balenberg</name><ele>45</ele><wikidata>Q15943183</wikidata><wikipedia>nl:Balenberg</wikipedia></wpt><wpt lat="51.0695944" lon="5.2281533"><name>Terril</name><ele>77</ele></wpt><wpt lat="51.073089" lon="5.2358831"><name>Terril Beringen</name><ele>110</ele></wpt><wpt lat="50.9872501" lon="5.4774713"><name>Terril Winterslag</name><ele>148</ele></wpt><wpt lat="51.0120769" lon="5.5423426"><name>Terril Waterschei</name><ele>155</ele></wpt><wpt lat="50.4963273" lon="6.3168589"><name>Wahlerscheid</name><ele>620.8</ele></wpt><wpt lat="50.4744167" lon="4.1724511"><name>Terril Saint-Hubert</name><ele>155</ele></wpt><wpt lat="50.4722044" lon="4.1770645"><name>Terril Sainte-Marie</name><ele>167</ele></wpt><wpt lat="50.4427631" lon="4.1065655"><name>Terril Marie-José</name><ele>119</ele></wpt><wpt lat="50.4609421" lon="4.263409"><name>Terril des Boulangers</name><ele>225</ele></wpt><wpt lat="50.7230789" lon="5.864648"><name>Hagelstein</name><ele>287</ele></wpt><wpt lat="50.7596801" lon="3.5731036"><name>Hotondberg</name><ele>150</ele></wpt><wpt lat="50.7655275" lon="3.6442616"><name>Muziekberg</name><ele>145</ele></wpt><wpt lat="50.764352" lon="3.6993167"><name>Pottelberg</name><ele>157</ele></wpt><wpt lat="50.4677098" lon="4.1997932"><name>Terril d'Houssu 2</name><ele>143</ele></wpt><wpt lat="50.7763502" lon="4.1044497"><name>De IJzeren Man</name><ele>112</ele></wpt><wpt lat="50.2489774" lon="5.7317128"><name>Baraque de Fraiture</name><ele>652</ele><wikidata>Q2183673</wikidata><wikipedia>fr:Baraque de Fraiture</wikipedia></wpt><wpt lat="50.3823846" lon="4.2389289"><name>Le Planty</name><ele>212.24</ele></wpt><wpt lat="50.4667733" lon="3.9690034"><name>Colline Saint-Lazare</name><ele>64</ele></wpt><wpt lat="50.4506477" lon="3.9770625"><name>Mont Panisel</name><ele>85</ele></wpt><wpt lat="50.4198461" lon="4.1581189"><name>Mont de la Justice</name><ele>100</ele></wpt><wpt lat="50.4685011" lon="4.1840171"><name>Terril Sars-Longchamps 2</name><ele>128</ele></wpt><wpt lat="50.4673457" lon="4.188554"><name>Terril de Sart-Longchamps 3</name><ele>110</ele></wpt><wpt lat="50.4707469" lon="4.2224436"><name>Terril</name><ele>155</ele></wpt><wpt lat="50.4660452" lon="4.2168914"><name>Terril</name><ele>166</ele></wpt><wpt lat="51.0752574" lon="3.0196908"><name>Ruidenberg</name><ele>45</ele><wikidata>Q2180670</wikidata></wpt><wpt lat="50.4628126" lon="4.2135688"><name>Terril</name><ele>138</ele></wpt><wpt lat="50.4704403" lon="4.1629818"><name>Terril Sainte-Barbe</name><ele>161</ele></wpt><wpt lat="50.4691642" lon="4.1611074"><name>Terril</name><ele>153</ele></wpt><wpt lat="50.4578851" lon="4.1861445"><name>Terril Houssu Ouest</name><ele>132</ele></wpt><wpt lat="50.4328155" lon="4.1375023"><name>Terril Sainte-Elisabeth</name><ele>122</ele></wpt><wpt lat="50.4367426" lon="4.1929229"><name>Terril Sainte-Marie</name><ele>155</ele></wpt><wpt lat="50.4318359" lon="4.1898437"><name>Terril Saint-Albert</name><ele>175</ele></wpt><wpt lat="50.4198161" lon="4.2019769"><name>Terril</name><ele>141</ele></wpt><wpt lat="50.4165331" lon="4.2015694"><name>Terril</name><ele>170</ele></wpt><wpt lat="50.4185549" lon="4.2116558"><name>Terril de la Courte</name><ele>151</ele></wpt><wpt lat="50.316259" lon="5.4373019"><name>Chêne a L'image</name><ele>225</ele></wpt><wpt lat="50.875642" lon="4.6505934"><name>Zwanenberg</name><ele>82</ele></wpt><wpt lat="50.6548972" lon="3.3997827"><name>Mont-Saint-Aubert</name><ele>145</ele></wpt><wpt lat="51.1872795" lon="4.785165"><name>Uitkijkpunt Natuurpunt</name><ele>1</ele></wpt><wpt lat="50.3969096" lon="4.9217225"><name>Sommet de la commune de Namur</name><ele>267</ele></wpt><wpt lat="50.3924574" lon="3.7552946"><name>Terril Belle Vue 8</name><ele>94</ele></wpt><wpt lat="50.3909777" lon="5.847575"><name>Mont Saint-Victor</name><ele>525</ele></wpt><wpt lat="50.7250956" lon="5.915806"><name>Schaesberg</name><ele>275</ele></wpt><wpt lat="50.7725085" lon="3.8905088"><name>Oudeberg</name><ele>110</ele><wikidata>Q2549889</wikidata></wpt><wpt lat="50.8797124" lon="4.5439871"><name>Eikelenberg</name><ele>77</ele></wpt><wpt lat="50.8150463" lon="5.574612"><name>Sieberg</name><ele>120</ele></wpt><wpt lat="51.0024" lon="5.6709409"><name>Tweelingsterril</name><ele>90</ele></wpt><wpt lat="51.0027949" lon="5.6868195"><name>Lange Terril</name><ele>100</ele></wpt><wpt lat="50.6636781" lon="6.1939129"><name>Hoehe413</name><ele>413</ele></wpt><wpt lat="50.1064477" lon="5.100004"><name>Gros Tienne</name><ele>220</ele></wpt><wpt lat="50.8424105" lon="4.5215941"><name>Uitkijkpunt</name><ele>0</ele></wpt><wpt lat="50.4399331" lon="4.2717958"><name>Terril du Bois des Vallées</name><ele>192</ele></wpt><wpt lat="50.4074565" lon="6.3713135"><name>Weißer Stein</name><ele>690</ele><wikidata>Q646452</wikidata><wikipedia>de:Weißer Stein (Eifel)</wikipedia></wpt><wpt lat="50.4321183" lon="4.3801424"><name>Le grand terril</name><ele>215</ele></wpt><wpt lat="50.4322548" lon="4.3853731"><name>Le petit terril</name><ele>185</ele></wpt><wpt lat="51.0801932" lon="2.9945636"><name>Koekelareberg</name><ele>43</ele></wpt><wpt lat="50.6230101" lon="5.7133916"><name>Micheroux 2</name><ele>269</ele></wpt><wpt lat="50.6188511" lon="5.7382832"><name>Terril du Bas-Bois</name><ele>247</ele></wpt><wpt lat="51.0416654" lon="3.6850364"><name>Karel Sabbeberg</name><ele>34</ele></wpt><wpt lat="51.1805335" lon="3.3227601"><name>Oedelemberg</name><ele>23</ele></wpt><wpt lat="50.9926291" lon="2.9335378"><name>Stadenberg</name><ele>45</ele></wpt><wpt lat="50.9886892" lon="3.1070954"><name>Gitsberg</name><ele>47</ele></wpt><wpt lat="50.3991248" lon="5.7732343"><name>Rouge Thier ou Rofthier</name><ele>395</ele></wpt><wpt lat="50.9243483" lon="3.0106538"><name>Zeugeberg</name><ele>50</ele></wpt><wpt lat="50.8823333" lon="4.6756217"><name>Dominicanenberg</name><ele>75</ele></wpt></gpx>