<?xml version="1.0" encoding="utf-8"?><gpx xmlns="http://www.topografix.com/GPX/1/1"><wpt lat="51.480436" lon="6.9394765"><name>St. Paulus</name><ele></ele></wpt><wpt lat="52.1722369" lon="10.6008411"><name>St. Marien</name><ele></ele></wpt><wpt lat="50.7105451" lon="7.4495503"><name>Evangelische Kirche Kircheib</name><ele></ele></wpt><wpt lat="51.4648045" lon="7.0971007"><name>St. Joseph (Kray)</name><ele></ele></wpt><wpt lat="50.7314615" lon="6.4397691"><name>Unnamed church 1</name><ele></ele></wpt><wpt lat="51.4764167" lon="6.9627111"><name>St. Johannes Bosco</name><ele></ele></wpt><wpt lat="52.2237496" lon="10.5042636"><name>St.-Petri-Kirche</name><ele></ele></wpt><wpt lat="52.0974898" lon="8.5150886"><name>Neuapostolische Kirche Jöllenbeck</name><ele></ele></wpt><wpt lat="50.7662376" lon="7.6734982"><name>Sankt Joseph</name><ele></ele></wpt><wpt lat="50.3971753" lon="7.4639855"><name>Unnamed church 2</name><ele></ele></wpt><wpt lat="51.2735408" lon="8.7331128"><name>Unnamed church 3</name><ele></ele></wpt><wpt lat="48.1739833" lon="9.8002176"><name>St. Mauritius</name><ele></ele></wpt><wpt lat="54.0723875" lon="13.3953387"><name>Königreichssaal</name><ele></ele></wpt><wpt lat="53.1694241" lon="9.4823515"><name>St. Lucas Kirche</name><ele></ele></wpt><wpt lat="52.3454287" lon="13.5509428"><name>Dorfkirche Kiekebusch</name><ele></ele><wikidata>Q31789401</wikidata></wpt><wpt lat="49.9219189" lon="11.7874554"><name>St. Jakob der Ältere</name><ele></ele></wpt><wpt lat="50.4488424" lon="6.5012759"><name>St. Antonius</name><ele></ele></wpt><wpt lat="53.0145195" lon="12.6482606"><name>Unnamed church 4</name><ele></ele></wpt><wpt lat="52.6637855" lon="11.2033868"><name>Unnamed church 5</name><ele></ele></wpt><wpt lat="49.9610419" lon="9.212009"><name>Sankt Johannes der Täufer</name><ele></ele></wpt><wpt lat="52.3832791" lon="9.1194567"><name>Sankt Nikolai</name><ele></ele></wpt><wpt lat="52.3114576" lon="9.1138933"><name>Evg. Kirche Seggebruch</name><ele></ele></wpt><wpt lat="48.309694" lon="8.9181652"><name>St. Nikolaus</name><ele></ele></wpt><wpt lat="50.1172969" lon="11.6062444"><name>Heilingskirche</name><ele></ele></wpt><wpt lat="52.3465658" lon="11.0823088"><name>St. Petri Seggerode</name><ele></ele></wpt><wpt lat="52.3017527" lon="7.4686254"><name>Lambertihaus</name><ele></ele></wpt><wpt lat="50.3897482" lon="8.1006137"><name>Sankt Antonius Eremit Kirche</name><ele></ele></wpt><wpt lat="50.5517388" lon="9.6733767"><name>Hauskapelle</name><ele></ele></wpt><wpt lat="47.8907412" lon="11.5890408"><name>Zu den sieben Schmerzen Marien</name><ele></ele></wpt><wpt lat="52.3718517" lon="8.2110577"><name>St. Marien Schwagstorf</name><ele></ele></wpt><wpt lat="47.9633619" lon="10.9068367"><name>St. Johannes Baptist</name><ele></ele></wpt><wpt lat="51.1734887" lon="7.0887692"><name>Freie evangelische Gemeinde Solingen - Mitte</name><ele></ele></wpt><wpt lat="50.1722749" lon="10.7342221"><name>Kirche Altenstein</name><ele></ele></wpt><wpt lat="52.7555444" lon="8.1504615"><name>Unnamed church 6</name><ele></ele></wpt><wpt lat="48.4542729" lon="10.27573"><name>Hofkirche</name><ele></ele><wikidata>Q41298519</wikidata></wpt><wpt lat="48.1846218" lon="8.071209"><name>Pfaffenkapelle</name><ele></ele></wpt><wpt lat="49.7770926" lon="7.8942037"><name>Evangelische Kirche</name><ele></ele></wpt><wpt lat="51.4932258" lon="9.3820854"><name>Neustädter Kirche</name><ele></ele><wikidata>Q1275292</wikidata></wpt><wpt lat="50.0341445" lon="6.4984471"><name>Pfarrkirche St. Martin</name><ele></ele></wpt><wpt lat="51.7802698" lon="9.9457465"><name>St. Georgi Kirche</name><ele></ele></wpt><wpt lat="50.5736367" lon="7.7384212"><name>Sankt Anna</name><ele></ele></wpt><wpt lat="49.7460088" lon="8.8579173"><name>St. Laurentius</name><ele></ele></wpt><wpt lat="48.4052098" lon="9.7907076"><name>Neuapostolische Kirche</name><ele></ele></wpt><wpt lat="50.1141268" lon="8.8467916"><name>Jehovas Zeugen</name><ele></ele></wpt><wpt lat="51.1834724" lon="7.1842657"><name>Friedenskirche Remscheid</name><ele></ele></wpt><wpt lat="49.7870129" lon="9.0790497"><name>Katholische Kirche</name><ele></ele></wpt><wpt lat="49.7830202" lon="9.069973"><name>Evangelische Kirche</name><ele></ele></wpt><wpt lat="50.2219258" lon="6.8823288"><name>Hörscheider Kapellchen</name><ele></ele></wpt><wpt lat="49.5672158" lon="9.5534354"><name>St. Kilian</name><ele></ele><wikidata>Q28842193</wikidata></wpt><wpt lat="49.6069038" lon="12.3188522"><name>Thomas</name><ele></ele></wpt><wpt lat="52.7363412" lon="10.6041924"><name>Neuapostolische Kirche Hankensbüttel</name><ele></ele></wpt><wpt lat="49.1464776" lon="10.6209167"><name>Unnamed church 7</name><ele></ele></wpt><wpt lat="53.3295275" lon="8.1865642"><name>Unnamed church 8</name><ele></ele></wpt><wpt lat="51.1996536" lon="8.8353574"><name>Klosterruine Schaaken</name><ele></ele></wpt><wpt lat="50.0885612" lon="9.0706555"><name>Dreifaltigkeitskapelle im Wingert</name><ele></ele></wpt><wpt lat="48.7019701" lon="9.9985334"><name>Trauung</name><ele></ele></wpt><wpt lat="50.5798241" lon="9.8048794"><name>Unnamed church 9</name><ele></ele></wpt><wpt lat="49.6355496" lon="8.3631751"><name>Stadtmission Worms</name><ele></ele></wpt><wpt lat="47.825008" lon="11.4051507"><name>Unnamed church 10</name><ele></ele></wpt><wpt lat="51.9323228" lon="11.1221062"><name>Sankt-Laurentius</name><ele></ele></wpt><wpt lat="49.2490411" lon="8.3409185"><name>St. Martin</name><ele></ele></wpt><wpt lat="51.0560271" lon="8.7945874"><name>Unnamed church 11</name><ele></ele></wpt><wpt lat="52.1076791" lon="10.8730523"><name>St. Nicolai</name><ele></ele></wpt><wpt lat="50.0733214" lon="12.0561322"><name>St. Jakob</name><ele></ele></wpt><wpt lat="48.730855" lon="11.6153412"><name>Unnamed church 12</name><ele></ele></wpt><wpt lat="49.1320215" lon="7.2007064"><name>Marienkapelle</name><ele></ele></wpt><wpt lat="52.8057414" lon="9.650204"><name>Kirche des Geistlichen Rüstzentrums</name><ele></ele></wpt><wpt lat="48.5572341" lon="7.9842965"><name>Zimmerer Kirche</name><ele></ele></wpt><wpt lat="49.5324496" lon="12.2768331"><name>Peter und Paul</name><ele></ele></wpt><wpt lat="51.6898343" lon="10.8506748"><name>Katholische Kirche Hasselfelde</name><ele></ele></wpt><wpt lat="49.5376258" lon="12.2382344"><name>Vierzehn Nothelfer</name><ele></ele></wpt><wpt lat="50.3587562" lon="7.6109631"><name>Klosterkirche St. Franziskus, St. Philippus Ap. und Karl Borromäus</name><ele></ele><wikipedia>de:Kapuzinerkloster Koblenz</wikipedia></wpt><wpt lat="49.6706816" lon="12.2952416"><name>Michael</name><ele></ele></wpt><wpt lat="51.89308" lon="11.289873"><name>Dorfkirche Heteborn</name><ele></ele><wikidata>Q1244365</wikidata><wikipedia>de:Dorfkirche Heteborn</wikipedia></wpt><wpt lat="53.0329933" lon="12.667986"><name>Unnamed church 13</name><ele></ele></wpt><wpt lat="51.5948965" lon="13.5043681"><name>Unnamed church 14</name><ele></ele></wpt><wpt lat="51.2920318" lon="8.7298167"><name>St.-Pankratius-Kirche Neerdar</name><ele></ele></wpt><wpt lat="48.0865353" lon="11.5583982"><name>Unnamed church 15</name><ele></ele></wpt><wpt lat="47.8204621" lon="11.4049599"><name>Unnamed church 16</name><ele></ele></wpt><wpt lat="52.0002383" lon="13.413489"><name>Kirche Merzdorf</name><ele></ele></wpt><wpt lat="52.277232" lon="8.0448403"><name>Kreuzgang</name><ele></ele></wpt><wpt lat="49.7359131" lon="8.9520818"><name>Unnamed church 17</name><ele></ele></wpt><wpt lat="51.3091288" lon="8.6997548"><name>Kirche Hemmighausen</name><ele></ele></wpt><wpt lat="54.1118348" lon="13.0477411"><name>Hoffnungskirche (Evangelisch-Freikirchliche Gemeinde Grimmen)</name><ele></ele></wpt><wpt lat="53.081862" lon="9.9967807"><name>Sankt Antonius</name><ele></ele><wikidata>Q606982</wikidata><wikipedia>de:St.-Antonius-Kirche (Bispingen)</wikipedia></wpt><wpt lat="48.6308702" lon="9.3899163"><name>Neuapostolische Kirche</name><ele></ele></wpt><wpt lat="52.3313197" lon="10.2773432"><name>Kapelle</name><ele></ele></wpt><wpt lat="53.3804104" lon="9.8958604"><name>Kirchengemeinde Nenndorf</name><ele></ele></wpt><wpt lat="49.0430225" lon="12.9337458"><name>Unnamed church 18</name><ele></ele></wpt><wpt lat="49.9799743" lon="12.1168711"><name>Filialkirche St. Michael Lengenfeld</name><ele></ele></wpt><wpt lat="53.3289032" lon="9.8814989"><name>Evangelische Kirche St. Paulus</name><ele></ele></wpt><wpt lat="48.1198379" lon="10.4559579"><name>Seminarkapelle St. Ulrich</name><ele></ele></wpt><wpt lat="48.6855991" lon="8.0577698"><name>Pfarramt St. Cyriak</name><ele></ele></wpt><wpt lat="53.3241468" lon="9.8549036"><name>Adventgemeinde</name><ele></ele></wpt><wpt lat="53.1209346" lon="9.7863527"><name>St. Ansgar</name><ele></ele><wikidata>Q15129191</wikidata><wikipedia>de:St. Ansgar (Schneverdingen)</wikipedia></wpt><wpt lat="51.2552727" lon="7.0865021"><name>Tanzcenter Asfahl</name><ele></ele></wpt><wpt lat="50.5269148" lon="8.8698455"><name>Häuser Kirche - Ruine</name><ele></ele><wikidata>Q15855221</wikidata><wikipedia>de:Wüstung Hausen</wikipedia></wpt><wpt lat="50.5861434" lon="10.4113164"><name>Unnamed church 19</name><ele></ele></wpt><wpt lat="53.3158537" lon="9.8798236"><name>Friedenskirche Buchholz</name><ele></ele></wpt><wpt lat="49.511781" lon="12.2253076"><name>Mattäus</name><ele></ele></wpt><wpt lat="49.5438471" lon="12.1392054"><name>Erlöserkirche</name><ele></ele></wpt><wpt lat="51.5297831" lon="10.4214839"><name>Unnamed church 20</name><ele></ele></wpt><wpt lat="50.1860398" lon="11.7878581"><name>Kapelle zum Heiligen Kreuz</name><ele></ele></wpt><wpt lat="50.1444883" lon="8.7425037"><name>Eritreische Gemeinde des ganzen Evangeliums</name><ele></ele></wpt><wpt lat="50.0767141" lon="7.3869064"><name>Sankt Nikolaus</name><ele></ele></wpt><wpt lat="50.3005966" lon="8.7081376"><name>Burgkirche Nieder-Rosbach</name><ele></ele></wpt><wpt lat="49.9333286" lon="11.5661305"><name>Russisch-Orthodoxe Kirche</name><ele></ele></wpt><wpt lat="49.3465501" lon="9.2536585"><name>Ruine Michaelskirche</name><ele></ele></wpt><wpt lat="49.1442958" lon="10.8828056"><name>St. Ottilia</name><ele></ele><wikidata>Q1773302</wikidata><wikipedia>de:St. Ottilia (Absberg)</wikipedia></wpt><wpt lat="50.0967172" lon="11.5796275"><name>Katholische Kirche Neuenmarkt</name><ele></ele></wpt><wpt lat="52.4595" lon="14.4594517"><name>Dorfkirche</name><ele></ele></wpt><wpt lat="51.4968867" lon="13.5619854"><name>Kath. Kirche St. Matthias</name><ele></ele></wpt><wpt lat="52.8182052" lon="10.9916704"><name>Unnamed church 21</name><ele></ele></wpt><wpt lat="50.303589" lon="11.9078912"><name>Sankt Pius</name><ele></ele><wikidata>Q18028089</wikidata></wpt><wpt lat="48.5191934" lon="9.0503669"><name>Schlosskirche</name><ele></ele></wpt><wpt lat="49.962472" lon="8.9535204"><name>Evangelische Kirche St. Nikolaus</name><ele></ele><wikipedia>de:St. Nikolaus (Babenhausen)</wikipedia></wpt><wpt lat="53.6031209" lon="7.9174012"><name>St.-Elisabeth-Kirche</name><ele></ele><wikidata>Q15848404</wikidata><wikipedia>de:St.-Elisabeth-Kirche (Westrum)</wikipedia></wpt><wpt lat="48.5589839" lon="9.6683651"><name>Kath. Pfarrkirche Unterdrackenstein</name><ele></ele></wpt></gpx>